# LAS format log file from PETREL
# Project units are specified as depth units
#==================================================================
~Version information
VERS.   2.0:
WRAP.   NO:
#==================================================================
~Well
STRT .ft      8654.0000000 :
STOP .ft      12882.500000 :
STEP .ft     0.25000000 :
NULL .        -999.250000 :
COMP.           : COMPANY
WELL.  GS324-4A(EDFU-A3A)   : WELL
FLD.            : FIELD
LOC.            : LOCATION
SRVC.           : SERVICE COMPANY
DATE.  2024-07-08 09:12:30   : Log Export Date {yyyy-MM-dd HH:mm:ss}
PROV.           : PROVINCE
UWI.   EGYPT2110901   : UNIQUE WELL ID
API.            : API NUMBER
#==================================================================
~Curve
DEPT .ft                   : DEPTH
RD .ohm.m                 : RD
PEF .b/e                  : PEF
DRHO .g/cm3               : DRHO
RHOB .g/cm3               : RHOB
NPHI .ft3/ft3             : NPHI
CALI .in                  : CALI
GR .gAPI                  : GR
PHI_FINAL .ft3/ft3        : PHI_FINAL
~Parameter
#==================================================================
~Ascii
# ...
 11646.000000 10.329190254 4.5196099281 0.0085100001 2.6109399796 0.1664351970 6.1049499512 58.511028290 0.0000000000
 11646.250000 10.153680801 4.5409851074 0.0074850000 2.6083700657 0.1704868376 6.0974750519 58.511028290 0.0000000000
 11646.500000 9.9781703949 4.5623598099 0.0064599998 2.6058001518 0.1745384932 6.0900001526 58.511028290 0.0000000000
 11646.750000 9.8208303452 4.4453148842 0.0032700000 2.5989551544 0.1768589467 6.0850348473 58.511028290 0.0000000000
 11647.000000 9.6634902954 4.3282699585 0.0000800000 2.5921101570 0.1791794002 6.0800695419 58.511028290 0.0000000000
 11647.250000 9.5819606781 4.3428249359 -0.001935000 2.5897202492 0.1842168570 6.0693597794 59.809921265 0.0000000000
 11647.500000 9.5004301071 4.3573799133 -0.003950000 2.5873301029 0.1892542988 6.0586500168 61.108810425 0.0000000000
 11647.750000 9.5004196167 4.4115748405 -0.009315000 2.5834600925 0.1944972426 6.0326900482 62.407703400 0.0000000000
 11648.000000 9.5004100800 4.4657697678 -0.014680000 2.5795900822 0.1997402012 6.0067300797 63.706600189 0.0000000000
 11648.250000 9.5004100800 4.5275597572 -0.010970000 2.5849249363 0.2040288001 6.0097250938 65.005493164 0.0000000000
 11648.500000 9.5004100800 4.5893502235 -0.007260000 2.5902600288 0.2083173990 6.0127201080 66.304382324 0.0000000000
 11648.750000 9.2937555313 4.7763400078 -0.001990000 2.5889699459 0.2121719420 6.0349149704 66.304382324 0.0000000000
 11649.000000 9.0871000290 4.9633297920 0.0032800001 2.5876798630 0.2160264999 6.0571103096 66.304382324 0.0000000000
 11649.250000 8.6637048721 4.9982695580 0.0029600002 2.5835399628 0.2166377902 6.0669651031 67.324211121 0.0000000000
 11649.500000 8.2403097153 5.0332098007 0.0026400001 2.5793998241 0.2172490954 6.0768203735 68.344047546 0.0000000000
 11649.750000 8.1752805710 5.0244350433 0.0037300002 2.5802049637 0.2192043513 6.0859303474 69.363876343 0.0000000000
 11650.000000 8.1102504730 5.0156598091 0.0048200004 2.5810101032 0.2211596072 6.0950403214 70.383712769 0.0000000000
 11650.250000 8.1102504730 4.7208795547 0.0014650002 2.5774402618 0.2185077071 6.0810751915 70.383712769 0.0000000000
 11650.500000 8.1102504730 4.4260997772 -0.001890000 2.5738701820 0.2158558071 6.0671100616 70.383712769 0.0000000000
 11650.750000 8.3555355072 4.2989850044 -0.005175000 2.5774052143 0.2129917443 6.0732250214 70.383712769 0.0000000000
 11651.000000 8.6008195877 4.1718702316 -0.008460000 2.5809400082 0.2101276964 6.0793399811 70.383712769 0.0000000000
 11651.250000 8.6008195877 4.4463801384 -0.008565000 2.5779700279 0.2050809562 6.0682449341 71.426376343 0.0000000000
 11651.500000 8.6008195877 4.7208900452 -0.008670000 2.5750000477 0.2000342011 6.0571503639 72.469039917 0.0000000000
 11651.750000 8.9887647629 4.8641047478 -0.007210000 2.5717051029 0.1930726022 6.0480804443 71.433990479 0.0000000000
 11652.000000 9.3767099380 5.0073199272 -0.005750000 2.5684099197 0.1861110032 6.0390100479 70.398933411 0.0000000000
 11652.250000 9.3767099380 4.9895801544 -0.006190000 2.5731048584 0.1834305525 6.0354604721 69.363883972 0.0000000000
 11652.500000 9.3767099380 4.9718399048 -0.006630000 2.5778000355 0.1807501018 6.0319104195 68.328826904 0.0000000000
 11652.750000 9.7553501129 4.5741200447 -0.006865000 2.5909948349 0.1787223518 6.0447902679 68.328826904 0.0000000000
 11653.000000 10.133990288 4.1764001846 -0.007100000 2.6041898727 0.1766946018 6.0576701164 68.328826904 0.0000000000
 11653.250000 10.512635231 4.3928098679 -0.001895000 2.6056199074 0.1788146943 6.0812149048 68.328826904 0.0000000000
 11653.500000 10.891280174 4.6092200279 0.0033100001 2.6070499420 0.1809348017 6.1047596931 68.328826904 0.0000000000
 11653.750000 11.064205170 4.8605051041 0.0107850004 2.6049699783 0.1826695949 6.1112699509 68.328826904 0.0000000000
 11654.000000 11.237130165 5.1117901802 0.0182600003 2.6028897762 0.1844044030 6.1177802086 68.328826904 0.0000000000
 11654.250000 11.523099899 5.2220897675 0.0176299997 2.6003048420 0.1875596046 6.1225204468 68.328826904 0.0000000000
 11654.500000 11.809069633 5.3323898315 0.0170000009 2.5977199078 0.1907148063 6.1272602081 68.328826904 0.0000000000
 11654.750000 11.915155411 5.3548450470 0.0162749998 2.6017899513 0.1928779036 6.1146502495 68.328826904 0.0000000000
 11655.000000 12.021240234 5.3772997856 0.0155500006 2.6058599949 0.1950410008 6.1020402908 68.328826904 0.0000000000
 11655.250000 12.253000259 4.8173298836 0.0106400000 2.5965600014 0.1964254081 6.0825147629 71.525314331 0.0000000000
 11655.500000 12.484760284 4.2573599815 0.0057299999 2.5872600079 0.1978098005 6.0629897118 74.721809387 0.0000000000
 11655.750000 12.484760284 4.2338953018 0.0065499996 2.5848600864 0.1997332424 6.0702695847 77.918296814 0.0000000000
 11656.000000 12.484760284 4.2104301453 0.0073699998 2.5824599266 0.2016566992 6.0775499344 81.114791870 0.0000000000
 11656.250000 12.722370148 4.0249500275 -0.000320000 2.5732800961 0.2010549009 6.0725650787 82.815780640 0.0000000000
 11656.500000 12.959980011 3.8394699097 -0.008010000 2.5641000271 0.2004531026 6.0675797462 84.516777039 0.0000000000
 11656.750000 13.434854507 4.1530447006 -0.000985000 2.5662548542 0.2000787109 6.0701150894 86.217758179 0.0000000000
 11657.000000 13.909729958 4.4666199684 0.0060399999 2.5684099197 0.1997043043 6.0726504326 87.918746948 0.0000000000
 11657.250000 13.909729958 4.3307352066 0.0015499999 2.5689249039 0.1999213547 6.0582404137 87.918746948 0.0000000000
 11657.500000 13.909729958 4.1948499680 -0.002940000 2.5694398880 0.2001384050 6.0438299179 87.918746948 0.0000000000
 11657.750000 14.470544815 4.3495197296 0.0051799999 2.5737848282 0.2015576512 6.0704798698 87.538215637 0.0000000000
 11658.000000 15.031359673 4.5041899681 0.0132999998 2.5781297684 0.2029768974 6.0971298218 87.157676697 0.0000000000
 11658.250000 15.533784866 4.5764951706 0.0146300001 2.5770397186 0.2012245506 6.1302452087 86.777145386 0.0000000000
 11658.500000 16.036209106 4.6487998962 0.0159600005 2.5759499073 0.1994722039 6.1633601189 86.396606445 0.0000000000
 11658.750000 16.036209106 5.1216750145 0.0223550014 2.5744898319 0.1948795021 6.1793103218 86.016067505 0.0000000000
 11659.000000 16.036209106 5.5945501328 0.0287500005 2.5730299950 0.1902868003 6.1952600479 85.635536194 0.0000000000
 11659.250000 16.351924896 5.4996252060 0.0277150013 2.5742049217 0.1840617061 6.1700353622 82.343917847 0.0000000000
 11659.500000 16.667640686 5.4046998024 0.0266800001 2.5753798485 0.1778365970 6.1448101997 79.052291870 0.0000000000
 11659.750000 17.334770203 5.4260048866 0.0260100011 2.5876150131 0.1717097014 6.1227951050 75.760665894 0.0000000000
 11660.000000 18.001899719 5.4473099709 0.0253400002 2.5998501778 0.1655828059 6.1007800102 72.469039917 0.0000000000
 11660.250000 19.999143600 5.4249253273 0.0251850002 2.6097099781 0.1591891497 6.1117348671 70.927879333 0.0000000000
 11660.500000 21.996389389 5.4025402069 0.0250300001 2.6195700169 0.1527954936 6.1226902008 69.386711121 0.0000000000
 11660.750000 22.325439453 5.1737051010 0.0254999995 2.6313548088 0.1487212032 6.1340050697 67.845550537 0.0000000000
 11661.000000 22.654489517 4.9448699951 0.0259699989 2.6431398392 0.1446468979 6.1453199387 66.304382324 0.0000000000
 11661.250000 22.654489517 4.8768501282 0.0289799981 2.6297750473 0.1399665475 6.1887097359 66.304382324 0.0000000000
 11661.500000 22.654489517 4.8088297844 0.0319899991 2.6164100170 0.1352861971 6.2320995331 66.304382324 0.0000000000
 11661.750000 23.099159241 5.1073646545 0.0290999990 2.6098999977 0.1317642480 6.1943349838 66.304382324 0.0000000000
 11662.000000 23.543830872 5.4059000015 0.0262099989 2.6033899784 0.1282422990 6.1565704346 66.304382324 0.0000000000
 11662.250000 23.543830872 5.9286050797 0.0255999994 2.6104500294 0.1244328469 6.1476449966 66.304382324 0.0000000000
 11662.500000 23.543830872 6.4513101578 0.0249899998 2.6175100803 0.1206234023 6.1387200356 66.304382324 0.0000000000
 11662.750000 24.346935272 6.6224551201 0.0220799986 2.6206500530 0.1195610017 6.1289596558 62.529476166 0.0000000000
