# LAS format log file from PETREL
# Project units are specified as depth units
#==================================================================
~Version information
VERS.   2.0:
WRAP.   NO:
#==================================================================
~Well
STRT .ft      8654.0000000 :
STOP .ft      12882.500000 :
STEP .ft     0.25000000 :
NULL .        -999.250000 :
COMP.           : COMPANY
WELL.  GS324-4A(EDFU-A3A)   : WELL
FLD.            : FIELD
LOC.            : LOCATION
SRVC.           : SERVICE COMPANY
DATE.  2024-07-08 09:12:30   : Log Export Date {yyyy-MM-dd HH:mm:ss}
PROV.           : PROVINCE
UWI.   EGYPT2110901   : UNIQUE WELL ID
API.            : API NUMBER
#==================================================================
~Curve
DEPT .ft                   : DEPTH
RD .ohm.m                 : RD
PEF .b/e                  : PEF
DRHO .g/cm3               : DRHO
RHOB .g/cm3               : RHOB
NPHI .ft3/ft3             : NPHI
CALI .in                  : CALI
GR .gAPI                  : GR
PHI_FINAL .ft3/ft3        : PHI_FINAL
~Parameter
#==================================================================
~Ascii
# ...
 12632.000000 7.0280599594 3.6986401081 0.0078699999 2.7304198742 0.1043360978 6.1640000343 52.186538696 0.0000000000
 12632.250000 7.2087502480 3.9099552631 0.0067249998 2.7260448933 0.1055245474 6.1192746162 54.412670135 0.0000000000
 12632.500000 7.3894400597 4.1212701797 0.0055800001 2.7216699123 0.1067129970 6.0745496750 56.638801575 0.0000000000
 12632.750000 7.5381250381 4.0815753937 0.0025800001 2.7091300488 0.1084561497 6.0735349655 60.474590302 0.0000000000
 12633.000000 7.6868100166 4.0418801308 -0.000420000 2.6965901852 0.1101993024 6.0725202560 64.310379028 0.0000000000
 12633.250000 7.7709298134 4.2597999573 0.0012300001 2.7037150860 0.1092847064 6.0765552521 64.310379028 0.0000000000
 12633.500000 7.8550500870 4.4777197838 0.0028800000 2.7108399868 0.1083701029 6.0805902481 64.310379028 0.0000000000
 12633.750000 7.7238450050 4.2626600266 0.0028900001 2.7097849846 0.1068600565 6.1063499451 64.310379028 0.0000000000
 12634.000000 7.5926399231 4.0475997925 0.0029000002 2.7087299824 0.1053500026 6.1321101189 64.310379028 0.0000000000
 12634.250000 7.6207499504 4.2551145554 0.0046049999 2.7073600292 0.1002436504 6.1333546638 66.350044250 0.0000000000
 12634.500000 7.6488599777 4.4626297951 0.0063100001 2.7059900761 0.0951372981 6.1345996857 68.389709473 0.0000000000
 12634.750000 8.4915447235 4.4733996391 0.0087150000 2.6999950409 0.0904925019 6.1642847061 70.429374695 0.0000000000
 12635.000000 9.3342304230 4.4841699600 0.0111199999 2.6940000057 0.0858476982 6.1939697266 72.469039917 0.0000000000
 12635.250000 9.7973051071 4.2422351837 0.0115700001 2.6957550049 0.0797676519 6.1912999153 69.386711121 0.0000000000
 12635.500000 10.260379791 4.0002999306 0.0120200003 2.6975100040 0.0736875981 6.1886301041 66.304382324 0.0000000000
 12635.750000 10.361055374 3.9269049168 0.0126850009 2.6995151043 0.0711447969 6.1841397285 59.645019531 0.0000000000
 12636.000000 10.461730003 3.8535099030 0.0133500006 2.7015199661 0.0686020032 6.1796498299 52.985660553 0.0000000000
 12636.250000 10.535175323 3.6365048885 0.0087050004 2.6997950077 0.0661455020 6.1348400116 52.985660553 0.0000000000
 12636.500000 10.608619690 3.4195001125 0.0040599997 2.6980700493 0.0636890009 6.0900301933 52.985660553 0.0000000000
 12636.750000 10.718939781 3.2695000172 -0.002390000 2.6959600449 0.0639532954 6.0506649017 46.288249969 0.0095428247
 12637.000000 10.829259872 3.1194999218 -0.008840000 2.6938500404 0.0642175972 6.0112996101 39.590839386 0.0190856494
 12637.250000 10.958669662 3.0486099720 -0.009730000 2.6896200180 0.0653291494 6.0033149719 40.789524078 0.0284416396
 12637.500000 11.088080406 2.9777200222 -0.010620000 2.6853899956 0.0664407015 5.9953303337 41.988208771 0.0377976298
 12637.750000 11.044485092 2.9464650154 -0.004690000 2.6666300297 0.0706976503 6.0545902252 43.186893463 0.0341078416
 12638.000000 11.000889778 2.9152100086 0.0012400000 2.6478700638 0.0749545991 6.1138501167 44.385578156 0.0304180495
 12638.250000 10.338350296 3.0919299126 0.0065350002 2.6457350254 0.0823651478 6.1573100090 44.385578156 0.0152090248
 12638.500000 9.6758098602 3.2686500549 0.0118300002 2.6435999870 0.0897756964 6.2007699013 44.385578156 0.0000000000
 12638.750000 8.5091848373 3.2588901520 0.0108200004 2.6287500858 0.1007467955 6.2302398682 50.512187958 0.0000000000
 12639.000000 7.3425598145 3.2491300106 0.0098100007 2.6138999462 0.1117179021 6.2597098351 56.638801575 0.0000000000
 12639.250000 6.1907749176 3.4196548462 0.0074750003 2.6117401123 0.1236564964 6.2487850189 58.617580414 0.0000000000
 12639.500000 5.0389900208 3.5901799202 0.0051400000 2.6095800400 0.1355950981 6.2378602028 60.596359253 0.0000000000
 12639.750000 5.4617300034 3.5940749645 0.0124150012 2.6180500984 0.1436471045 6.2426352501 62.575138092 0.0000000000
 12640.000000 5.8844699860 3.5979700089 0.0196900014 2.6265199184 0.1516990960 6.2474098206 64.553916931 0.0000000000
 12640.250000 5.8538198471 3.5830700397 0.0270000026 2.6417551041 0.1560060084 6.2678699493 67.598197937 0.0000000000
 12640.500000 5.8231701851 3.5681700706 0.0343100019 2.6569900513 0.1603129059 6.2883300781 70.642478943 0.0000000000
 12640.750000 5.5836300850 3.7019701004 0.0303650014 2.6679799557 0.1616274565 6.2680597305 73.686752319 0.0000000000
 12641.000000 5.3440899849 3.8357698917 0.0264200009 2.6789698601 0.1629420072 6.2477898598 76.731033325 0.0000000000
 12641.250000 5.1935601234 3.7808449268 0.0251950007 2.6921999454 0.1600959599 6.2419047356 71.517707825 0.0000000000
 12641.500000 5.0430297852 3.7259199619 0.0239699986 2.7054300308 0.1572498977 6.2360196114 66.304382324 0.0000000000
 12641.750000 6.2206349373 4.0046601295 0.0319599994 2.7146799564 0.1514216959 6.2358651161 66.304382324 0.0000000000
 12642.000000 7.3982400894 4.2834000587 0.0399500020 2.7239298820 0.1455934942 6.2357101440 66.304382324 0.0000000000
 12642.250000 7.4414100647 4.2937250137 0.0376400016 2.7298898697 0.1369602978 6.2535848618 66.304382324 0.0000000000
 12642.500000 7.4845800400 4.3040499687 0.0353300013 2.7358500957 0.1283271015 6.2714600563 66.304382324 0.0000000000
 12642.750000 7.6985597610 4.7857298851 0.0323799998 2.7378749847 0.1214929521 6.2524399757 51.425472260 0.0000000000
 12643.000000 7.9125399590 5.2674098015 0.0294300001 2.7398998737 0.1146588027 6.2334198952 36.546558380 0.0000000000
 12643.250000 8.1747646332 5.3796696663 0.0193499997 2.7323651314 0.1079737544 6.1981248856 36.546558380 0.0000000000
 12643.500000 8.4369897842 5.4919300079 0.0092700003 2.7248301506 0.1012886986 6.1628298759 36.546558380 0.0000000000
 12643.750000 8.5861253738 5.5073599815 0.0070799999 2.7153100967 0.0967820510 6.1312646866 36.546558380 0.0000000000
 12644.000000 8.7352600098 5.5227899551 0.0048900000 2.7057900429 0.0922754034 6.0996999741 36.546558380 0.0000000000
 12644.250000 8.7853851318 5.3290200233 0.0056750001 2.7122349739 0.0898847505 6.0939850807 33.007583618 0.0000000000
 12644.500000 8.8355102539 5.1352500916 0.0064599998 2.7186799049 0.0874940977 6.0882701874 29.468610764 0.0000000000
 12644.750000 8.8840150833 4.9083747864 0.0044200001 2.7281599045 0.0870510936 6.0806050301 29.468610764 0.0000000000
 12645.000000 8.9325199127 4.6814999580 0.0023800002 2.7376399040 0.0866080970 6.0729398727 29.468610764 0.0000000000
 12645.250000 8.9249553680 4.4745001793 0.0067750001 2.7556498051 0.0882119983 6.1012148857 33.761043549 0.0000000000
 12645.500000 8.9173898697 4.2674999237 0.0111699998 2.7736599445 0.0898158997 6.1294898987 38.053478241 0.0000000000
 12645.750000 9.1385250092 4.0996150970 0.0054250001 2.7632200718 0.0919391960 6.1244201660 37.307628632 0.0000000000
 12646.000000 9.3596601486 3.9317300320 -0.000320000 2.7527799606 0.0940624997 6.1193499565 36.561779022 0.0000000000
 12646.250000 9.4004096985 4.1122899055 0.0023099999 2.7461450100 0.0971241444 6.0920100212 35.815929413 0.0000000000
 12646.500000 9.4411602020 4.2928500175 0.0049399999 2.7395100594 0.1001857966 6.0646700859 35.070079803 0.0000000000
 12646.750000 9.4516897202 4.4326047897 0.0045950003 2.7352800369 0.1020972952 6.0513653755 35.808319092 0.0000000000
 12647.000000 9.4622201920 4.5723600388 0.0042500002 2.7310500145 0.1040088013 6.0380601883 36.546558380 0.0000000000
 12647.250000 9.4783544540 4.3331499100 0.0023200002 2.7371850014 0.1056471989 6.0486898422 36.546558380 0.0000000000
 12647.500000 9.4944896698 4.0939397812 0.0003900000 2.7433199883 0.1072855964 6.0593199730 36.546558380 0.0000000000
 12647.750000 9.7975997925 3.8049747944 -0.008549999 2.7450499535 0.1083097532 6.0260596275 36.546558380 0.0000000000
 12648.000000 10.100709915 3.5160100460 -0.017490000 2.7467799187 0.1093339026 5.9927997589 36.546558380 0.0000000000
 12648.250000 11.439044952 3.3254098892 -0.021250000 2.7433998585 0.1100181043 5.9967451096 36.923290253 0.0000000000
 12648.500000 12.777379990 3.1348099709 -0.025010001 2.7400200367 0.1107022986 6.0006899834 37.300018311 0.0000000000
 12648.750000 13.461709976 3.2852549553 -0.021520000 2.7379498482 0.1104568988 5.9893445969 37.676750183 0.0000000000
