# LAS format log file from PETREL
# Project units are specified as depth units
#==================================================================
~Version information
VERS.   2.0:
WRAP.   NO:
#==================================================================
~Well
STRT .ft      8654.0000000 :
STOP .ft      12882.500000 :
STEP .ft     0.25000000 :
NULL .        -999.250000 :
COMP.           : COMPANY
WELL.  GS324-4A(EDFU-A3A)   : WELL
FLD.            : FIELD
LOC.            : LOCATION
SRVC.           : SERVICE COMPANY
DATE.  2024-07-08 09:12:30   : Log Export Date {yyyy-MM-dd HH:mm:ss}
PROV.           : PROVINCE
UWI.   EGYPT2110901   : UNIQUE WELL ID
API.            : API NUMBER
#==================================================================
~Curve
DEPT .ft                   : DEPTH
RD .ohm.m                 : RD
PEF .b/e                  : PEF
DRHO .g/cm3               : DRHO
RHOB .g/cm3               : RHOB
NPHI .ft3/ft3             : NPHI
CALI .in                  : CALI
GR .gAPI                  : GR
PHI_FINAL .ft3/ft3        : PHI_FINAL
~Parameter
#==================================================================
~Ascii
# ...
 11000.000000 157.69250488 4.3230099678 0.0055700000 2.7246799469 0.0301549006 6.0493102074 52.985660553 0.0000000000
 11000.250000 154.79209900 4.3678150177 0.0005299998 2.7132050991 0.0297960006 6.0237402916 45.234172821 0.0000000000
 11000.500000 151.89169312 4.4126200676 -0.004510000 2.7017300129 0.0294371005 5.9981703758 37.482681274 0.0000000000
 11000.750000 155.46743774 4.2284049988 0.0035899994 2.6956899166 0.0299011003 6.0001249313 29.731185913 0.0073683951
 11001.000000 159.04319763 4.0441899300 0.0116899991 2.6896498203 0.0303651001 6.0020799637 21.979690552 0.0147367902
 11001.250000 159.04319763 4.4134702682 0.0099049993 2.6864800453 0.0318754502 5.9794197083 25.998134613 0.0205344204
 11001.500000 159.04319763 4.7827501297 0.0081199994 2.6833100319 0.0333857983 5.9567599297 30.016580582 0.0263320506
 11001.750000 164.45690918 4.6944847107 0.0058799996 2.6818048954 0.0353912003 5.9537148476 34.035030365 0.0244870745
 11002.000000 169.87060547 4.6062197685 0.0036400000 2.6802999973 0.0373965986 5.9506702423 38.053478241 0.0226421002
 11002.250000 157.26080322 4.9177646637 0.0000800000 2.6756348610 0.0388751477 5.9484300613 55.261260986 0.0245481450
 11002.500000 144.65100098 5.2293100357 -0.003480000 2.6709699631 0.0403537005 5.9461898804 72.469039917 0.0264541898
 11002.750000 144.65100098 4.9825201035 -0.002635000 2.6657750607 0.0397985503 5.9609446526 72.469039917 0.0148832910
 11003.000000 144.65100098 4.7357301712 -0.001790000 2.6605801582 0.0392434001 5.9756999016 72.469039917 0.0033123919
 11003.250000 150.84210205 4.8632798195 0.0034050001 2.6676249504 0.0378434993 5.9823098183 68.051033020 0.0016561960
 11003.500000 157.03320313 4.9908299446 0.0086000003 2.6746699810 0.0364435986 5.9889197350 63.633018494 0.0000000000
 11003.750000 167.45899963 5.2745847702 0.0098299999 2.6676499844 0.0350623503 5.9939899445 59.215015411 0.0004525986
 11004.000000 177.88479614 5.5583400726 0.0110600004 2.6606299877 0.0336810984 5.9990601540 54.797008514 0.0009051971
 11004.250000 175.44129944 5.6960649490 0.0140099991 2.6581151485 0.0336390994 6.0140399933 53.000885010 0.0004525986
 11004.500000 172.99780273 5.8337898254 0.0169599988 2.6556000710 0.0335971005 6.0290198326 51.204761505 0.0000000000
 11004.750000 171.43389893 5.7190451622 0.0097449990 2.6438651085 0.0343512483 6.0149998665 51.204761505 0.0041212980
 11005.000000 169.86999512 5.6043000221 0.0025299999 2.6321299076 0.0351053998 6.0009799004 51.204761505 0.0082425959
 11005.250000 179.17990112 5.4079599380 0.0017400000 2.6367897987 0.0354540497 6.0065498352 51.204761505 0.0041212980
 11005.500000 188.48980713 5.2116198540 0.0009500000 2.6414499283 0.0358026996 6.0121197701 51.204761505 0.0000000000
 11005.750000 188.95585632 4.9163947105 -0.009410000 2.6430799961 0.0366970003 6.0000748634 51.204761505 0.0125598405
 11006.000000 189.42190552 4.6211700439 -0.019770000 2.6447100639 0.0375913009 5.9880299568 51.204761505 0.0251196809
 11006.250000 189.42190552 4.7773399353 -0.015080000 2.6522400379 0.0385325998 5.9818000793 51.204761505 0.0233282112
 11006.500000 189.42190552 4.9335098267 -0.010390000 2.6597700119 0.0394738987 5.9755697250 51.204761505 0.0215367395
 11006.750000 178.13790894 4.9914097786 -0.012745000 2.6635198593 0.0411008969 5.9688897133 51.204761505 0.0321690738
 11007.000000 166.85389709 5.0493102074 -0.015100000 2.6672699451 0.0427278988 5.9622097015 51.204761505 0.0428014100
 11007.250000 169.13754272 5.1072797775 -0.016084999 2.6713948250 0.0422408991 5.9260597229 61.836898804 0.0444527641
 11007.500000 171.42120361 5.1652498245 -0.017069999 2.6755199432 0.0417538993 5.8899097443 72.469039917 0.0461041182
 11007.750000 164.89421082 5.2557296753 -0.016805001 2.6773548126 0.0415445492 5.8790149689 66.285354614 0.0466854945
 11008.000000 158.36720276 5.3462100029 -0.016540000 2.6791899204 0.0413351990 5.8681201935 60.101661682 0.0472668707
 11008.250000 156.71459961 5.0271601677 -0.012850001 2.6752700806 0.0410662517 5.9007997513 53.917972565 0.0404411145
 11008.500000 155.06199646 4.7081098557 -0.009160000 2.6713500023 0.0407973006 5.9334797859 47.734279633 0.0336153582
 11008.750000 155.06199646 4.7143096924 -0.003670000 2.6718900204 0.0415458977 5.9663596153 48.164283752 0.0224496443
 11009.000000 155.06199646 4.7205100060 0.0018200000 2.6724300385 0.0422944985 5.9992399216 48.594291687 0.0112839304
 11009.250000 153.16255188 4.5130548477 0.0032050000 2.6645350456 0.0427453965 6.0002698898 49.024295807 0.0056419652
 11009.500000 151.26310730 4.3056001663 0.0045900000 2.6566398144 0.0431962982 6.0013003349 49.454299927 0.0000000000
 11009.750000 146.53759766 4.3980903625 0.0022400001 2.6555898190 0.0441331491 5.9886698723 49.454299927 0.0055982899
 11010.000000 141.81210327 4.4905800819 -0.000110000 2.6545400620 0.0450700000 5.9760398865 49.454299927 0.0111965798
 11010.250000 141.81210327 4.5224151611 -0.003160000 2.6525950432 0.0459500998 5.9900398254 64.180999756 0.0084811645
 11010.500000 141.81210327 4.5542497635 -0.006210000 2.6506497860 0.0468301997 6.0040397644 78.907691956 0.0057657491
 11010.750000 138.09635925 4.5765748024 -0.014389999 2.6509249210 0.0481641479 5.9827051163 73.340469360 0.0252745841
 11011.000000 134.38059998 4.5988998413 -0.022569999 2.6512000561 0.0494980998 5.9613704681 67.773246765 0.0447834209
 11011.250000 123.81195068 4.9183497429 -0.020959999 2.6519949436 0.0499209501 5.9415254593 62.206024170 0.0477103442
 11011.500000 113.24330139 5.2378001213 -0.019350000 2.6527900696 0.0503438003 5.9216799736 56.638801575 0.0506372713
 11011.750000 113.61519623 5.1969351768 -0.014800000 2.6580450535 0.0509718992 5.9196100235 56.638801575 0.0489356518
 11012.000000 113.98709869 5.1560702324 -0.010250000 2.6633000374 0.0516000018 5.9175395966 56.638801575 0.0472340286
 11012.250000 112.53085327 5.0427551270 -0.010010000 2.6610999107 0.0522302501 5.9131050110 56.638801575 0.0431182198
 11012.500000 111.07460022 4.9294400215 -0.009770000 2.6588997841 0.0528604984 5.9086699486 56.638801575 0.0390024111
 11012.750000 111.07460022 4.6334400177 -0.012450000 2.6539950371 0.0539238490 5.9035749435 54.812232971 0.0432012230
 11013.000000 111.07460022 4.3374400139 -0.015130000 2.6490900517 0.0549871996 5.8984799385 52.985660553 0.0474000387
 11013.250000 105.44152069 4.3648948669 -0.008060000 2.6449849606 0.0543559492 5.9116897583 51.219978333 0.0398529544
 11013.500000 99.808441162 4.3923501968 -0.000990000 2.6408798695 0.0537246987 5.9249000549 49.454299927 0.0323058702
 11013.750000 95.676170349 4.5881652832 0.0062600002 2.6403498650 0.0523581989 5.9534101486 53.046550751 0.0246792547
 11014.000000 91.543907166 4.7839798927 0.0135100000 2.6398200989 0.0509916991 5.9819197655 56.638801575 0.0170526393
 11014.250000 91.543907166 4.9107446671 0.0146949999 2.6427350044 0.0491634011 6.0121250153 57.582527161 0.0100054685
 11014.500000 91.543907166 5.0375099182 0.0158799998 2.6456499100 0.0473350994 6.0423297882 58.526248932 0.0029582980
 11014.750000 89.587265015 5.4054050446 0.0060749999 2.6372499466 0.0478122495 6.0021748543 59.469974518 0.0141550042
 11015.000000 87.630622864 5.7733001709 -0.003730000 2.6288499832 0.0482893996 5.9620199203 60.413700104 0.0253517106
 11015.250000 72.936950684 5.3462452888 -0.012635000 2.6292848587 0.0483774990 5.9710297585 60.413700104 0.0286682006
 11015.500000 58.243270874 4.9191899300 -0.021540001 2.6297199726 0.0484655984 5.9800400734 60.413700104 0.0319846906
 11015.750000 63.271526337 4.5576548576 -0.020185001 2.6263849735 0.0484178998 5.9683799744 60.413700104 0.0316678807
 11016.000000 68.299781799 4.1961197853 -0.018829999 2.6230499744 0.0483702011 5.9567198753 60.413700104 0.0313510709
 11016.250000 72.003875732 3.9898049831 -0.018140001 2.6252598763 0.0488931984 5.9533848763 56.699680328 0.0322263986
 11016.500000 75.707977295 3.7834899426 -0.017450001 2.6274700165 0.0494161993 5.9500498772 52.985660553 0.0331017300
 11016.750000 75.888366699 3.2375500202 -0.001470000 2.6410350800 0.0526544489 5.9931597710 51.672817230 0.0165508650
