# LAS format log file from PETREL
# Project units are specified as depth units
#==================================================================
~Version information
VERS.   2.0:
WRAP.   NO:
#==================================================================
~Well
STRT .ft      8654.0000000 :
STOP .ft      12882.500000 :
STEP .ft     0.25000000 :
NULL .        -999.250000 :
COMP.           : COMPANY
WELL.  GS324-4A(EDFU-A3A)   : WELL
FLD.            : FIELD
LOC.            : LOCATION
SRVC.           : SERVICE COMPANY
DATE.  2024-07-08 09:12:30   : Log Export Date {yyyy-MM-dd HH:mm:ss}
PROV.           : PROVINCE
UWI.   EGYPT2110901   : UNIQUE WELL ID
API.            : API NUMBER
#==================================================================
~Curve
DEPT .ft                   : DEPTH
RD .ohm.m                 : RD
PEF .b/e                  : PEF
DRHO .g/cm3               : DRHO
RHOB .g/cm3               : RHOB
NPHI .ft3/ft3             : NPHI
CALI .in                  : CALI
GR .gAPI                  : GR
PHI_FINAL .ft3/ft3        : PHI_FINAL
~Parameter
#==================================================================
~Ascii
# ...
 12802.000000 12.906700134 5.0682301521 0.0194699988 2.7351398468 0.1017114967 6.0696101189 26.850530624 0.0000000000
 12802.250000 9.6664705276 5.0072350502 0.0211199988 2.7066049576 0.1104816943 6.0096549988 28.836925507 0.0000000000
 12802.500000 6.4262399673 4.9462399483 0.0227700006 2.6780700684 0.1192518994 5.9496998787 30.823320389 0.0000000000
 12802.750000 6.7370400429 4.8028850555 0.0782150030 2.6573500633 0.1312864423 6.0401496887 30.823320389 0.0000000000
 12803.000000 7.0478401184 4.6595301628 0.1336600035 2.6366298199 0.1433209926 6.1305999756 30.823320389 0.0000000000
 12803.250000 6.8025550842 4.5430202484 0.1675549895 2.6096100807 0.1549022496 6.2996697426 30.823320389 0.0000000000
 12803.500000 6.5572700500 4.4265098572 0.2014499903 2.5825901031 0.1664835066 6.4687399864 30.823320389 0.0000000000
 12803.750000 6.1858997345 4.4222850800 0.1713649929 2.5647101402 0.1890501082 6.4878101349 41.904491425 0.0000000000
 12804.000000 5.8145298958 4.4180598259 0.1412799954 2.5468301773 0.2116166949 6.5068802834 52.985660553 0.0000000000
 12804.250000 5.4893150330 4.3368749619 0.1239299998 2.5334451199 0.2331485003 6.4945850372 52.985660553 0.0000000000
 12804.500000 5.1641001701 4.2556900978 0.1065800041 2.5200600624 0.2546803057 6.4822902679 52.985660553 0.0000000000
 12804.750000 5.0443902016 4.1077799797 0.1300700009 2.5221400261 0.2785236239 6.5434703827 58.648017883 0.0000000000
 12805.000000 4.9246802330 3.9598701000 0.1535599977 2.5242199898 0.3023669124 6.6046500206 64.310379028 0.0000000000
 12805.250000 5.3151798248 3.7921500206 0.1635199934 2.5156750679 0.3162178099 6.6483697891 64.310379028  -999.250000
 12805.500000 5.7056798935 3.6244299412 0.1734799892 2.5071299076 0.3300687075 6.6920895576 64.310379028  -999.250000
 12805.750000 6.8474998474 3.7151699066 0.1780699939 2.5155098438 0.3425433934 6.8032493591 64.310379028  -999.250000
 12806.000000 7.9893198013 3.8059101105 0.1826599985 2.5238897800 0.3550181091 6.9144096375 64.310379028  -999.250000
 12806.250000 6.6862401962 3.9545650482 0.1604650021 2.5219149590 0.3540284634 6.8529901505 64.310379028  -999.250000
 12806.500000 5.3831601143 4.1032199860 0.1382700056 2.5199398994 0.3530387878 6.7915701866 64.310379028  -999.250000
 12806.750000 4.8343052864 4.0468502045 0.1382900029 2.5258698463 0.3469017148 6.7377653122 64.310379028  -999.250000
 12807.000000 4.2854499817 3.9904799461 0.1383100003 2.5318000317 0.3407646120 6.6839599609 64.310379028  -999.250000
 12807.250000 4.4645600319 4.0110549927 0.1393599957 2.5241901875 0.3407200277 6.5948801041 64.314186096  -999.250000
 12807.500000 4.6436700821 4.0316300392 0.1404100060 2.5165801048 0.3406754136 6.5058002472 64.317993164  -999.250000
 12807.750000 4.8599600792 3.9256901741 0.1655650139 2.5256299973 0.3368126154 6.5299549103 64.321792603  -999.250000
 12808.000000 5.0762500763 3.8197500706 0.1907200068 2.5346798897 0.3329497874 6.5541095734 64.325599670  -999.250000
 12808.250000 5.1798601151 3.7320349216 0.1773799956 2.5207548141 0.3383445144 6.5552697182 64.820297241  -999.250000
 12808.500000 5.2834701538 3.6443200111 0.1640399992 2.5068299770 0.3437392116 6.5564298630 65.314987183  -999.250000
 12808.750000 5.8076000214 3.6698050499 0.2011800110 2.5278849602 0.3378325701 6.7228345871 65.809684753  -999.250000
 12809.000000 6.3317298889 3.6952900887 0.2383200079 2.5489399433 0.3319258988 6.8892397881 66.304382324  -999.250000
 12809.250000 7.6538748741 3.7893450260 0.2426249981 2.5527849197 0.3289568424 6.9109997749 66.304382324  -999.250000
 12809.500000 8.9760198593 3.8833999634 0.2469299883 2.5566298962 0.3259877861 6.9327597618 66.304382324  -999.250000
 12809.750000 12.005865097 4.4624547958 0.1956650019 2.5555851460 0.3061339557 6.8052096367 69.386711121  -999.250000
 12810.000000 15.035710335 5.0415101051 0.1444000006 2.5545401573 0.2862800956 6.6776595116 72.469039917  -999.250000
 12810.250000 17.393344879 5.7071399689 0.1125800014 2.5812799931 0.2511895597 6.6284747124 69.455207825  -999.250000
 12810.500000 19.750980377 6.3727698326 0.0807600021 2.6080200672 0.2160989940 6.5792899132 66.441368103  -999.250000
 12810.750000 19.815633774 6.6944398880 0.0624050014 2.6449699402 0.1883197576 6.5553550720 63.427536011  -999.250000
 12811.000000 19.880289078 7.0161099434 0.0440500006 2.6819198132 0.1605405062 6.5314202309 60.413700104  -999.250000
 12811.250000 20.808519363 6.6466150284 0.0391050018 2.6909749508 0.1438665539 6.4845452309 54.934001923  -999.250000
 12811.500000 21.736749649 6.2771201134 0.0341599993 2.7000300884 0.1271926016 6.4376702309 49.454299927  -999.250000
 12811.750000 22.831710815 5.5122404099 0.0315349996 2.7330050468 0.1206679493 6.4033098221 49.454299927  -999.250000
 12812.000000 23.926670074 4.7473602295 0.0289099999 2.7659800053 0.1141432971 6.3689498901 49.454299927  -999.250000
 12812.250000 18.599979401 4.4664149284 0.0189299993 2.7602748871 0.1118275449 6.2823648453 43.803359985  -999.250000
 12812.500000 13.273289680 4.1854701042 0.0089499997 2.7545700073 0.1095118001 6.1957802773 38.152420044  -999.250000
 12812.750000 10.484194756 4.2351198196 0.0253099985 2.7453749180 0.1117043048 6.1483554840 32.501476288  -999.250000
 12813.000000 7.6950998306 4.2847700119 0.0416699983 2.7361798286 0.1138968021 6.1009302139 26.850530624  -999.250000
 12813.250000 7.0152201653 4.4334897995 0.0469149984 2.6955599785 0.1177492961 6.0672602654 31.698543549  -999.250000
 12813.500000 6.3353400230 4.5822100639 0.0521599986 2.6549398899 0.1216017976 6.0335898399 36.546558380  -999.250000
 12813.750000 6.2853999138 4.4272799492 0.0871750042 2.6582047939 0.1299570054 6.1272950172 43.000427246  -999.250000
 12814.000000 6.2354598045 4.2723498344 0.1221900061 2.6614699364 0.1383122057 6.2210001945 49.454299927  -999.250000
 12814.250000 6.0203051567 3.9003400803 0.1364299953 2.6611850262 0.1552948058 6.3324398994 49.454299927  -999.250000
 12814.500000 5.8051500320 3.5283300877 0.1506699920 2.6608998775 0.1722774059 6.4438800812 49.454299927  -999.250000
 12814.750000 5.3270850182 3.5606749058 0.1802600026 2.6088099480 0.1999634951 6.6112999916 49.454299927  -999.250000
 12815.000000 4.8490200043 3.5930199623 0.2098500133 2.5567200184 0.2276495993 6.7787199020 49.454299927  -999.250000
 12815.250000 4.6207551956 3.6827149391 0.2207850069 2.5445001125 0.2653318048 6.8694596291 49.454299927  -999.250000
 12815.500000 4.3924899101 3.7724099159 0.2317200005 2.5322799683 0.3030140102 6.9601998329 49.454299927  -999.250000
 12815.750000 4.2869396210 3.9379899502 0.2201400101 2.5196049213 0.3254151344 6.9647397995 65.284545898  -999.250000
 12816.000000 4.1813898087 4.1035699844 0.2085600048 2.5069298744 0.3478162885 6.9692802429 81.114791870  -999.250000
 12816.250000 4.3239750862 4.0764546394 0.1727149934 2.5052149296 0.3549140096 6.8957400322 81.114791870  -999.250000
 12816.500000 4.4665598869 4.0493397713 0.1368699968 2.5034999847 0.3620117009 6.8221998215 81.114791870  -999.250000
 12816.750000 4.5003051758 4.0258445740 0.1412999928 2.4820199013 0.3773693442 6.8654198647 81.114791870  -999.250000
 12817.000000 4.5340499878 4.0023498535 0.1457299888 2.4605400562 0.3927269876 6.9086399078 81.114791870  -999.250000
 12817.250000 4.5182700157 4.1482195854 0.1700899899 2.4536650181 0.3948256969 6.9617648125 81.674179077  -999.250000
 12817.500000 4.5024900436 4.2940897942 0.1944499910 2.4467899799 0.3969244063 7.0148901939 82.233566284  -999.250000
 12817.750000 4.5458598137 4.2941899300 0.2168349922 2.4431200027 0.4011982977 7.0579800606 82.792953491  -999.250000
 12818.000000 4.5892300606 4.2942900658 0.2392200083 2.4394500256 0.4054721892 7.1010699272 83.352340698  -999.250000
 12818.250000 4.6319947243 4.2782149315 0.2061100006 2.4524948597 0.4026180506 7.0067701340 82.792953491  -999.250000
 12818.500000 4.6747598648 4.2621397972 0.1729999930 2.4655399323 0.3997639120 6.9124698639 82.233566284  -999.250000
 12818.750000 4.7906298637 4.3118548393 0.1549700052 2.4787600040 0.4030469954 6.9315800667 81.674179077  -999.250000
