# LAS format log file from PETREL
# Project units are specified as depth units
#==================================================================
~Version information
VERS.   2.0:
WRAP.   NO:
#==================================================================
~Well
STRT .ft      8654.0000000 :
STOP .ft      12882.500000 :
STEP .ft     0.25000000 :
NULL .        -999.250000 :
COMP.           : COMPANY
WELL.  GS324-4A(EDFU-A3A)   : WELL
FLD.            : FIELD
LOC.            : LOCATION
SRVC.           : SERVICE COMPANY
DATE.  2024-07-08 09:12:30   : Log Export Date {yyyy-MM-dd HH:mm:ss}
PROV.           : PROVINCE
UWI.   EGYPT2110901   : UNIQUE WELL ID
API.            : API NUMBER
#==================================================================
~Curve
DEPT .ft                   : DEPTH
RD .ohm.m                 : RD
PEF .b/e                  : PEF
DRHO .g/cm3               : DRHO
RHOB .g/cm3               : RHOB
NPHI .ft3/ft3             : NPHI
CALI .in                  : CALI
GR .gAPI                  : GR
PHI_FINAL .ft3/ft3        : PHI_FINAL
~Parameter
#==================================================================
~Ascii
# ...
 10337.000000 3.7426800728  -999.250000  -999.250000  -999.250000 0.1723455936  -999.250000  -999.250000  -999.250000
 10337.250000 3.7680048943  -999.250000  -999.250000  -999.250000 0.1709846556  -999.250000  -999.250000  -999.250000
 10337.500000 3.7933299541  -999.250000  -999.250000  -999.250000 0.1696237028  -999.250000  -999.250000  -999.250000
 10337.750000 3.7701849937  -999.250000  -999.250000  -999.250000 0.1671989113  -999.250000  -999.250000  -999.250000
 10338.000000 3.7470400333  -999.250000  -999.250000  -999.250000 0.1647741050  -999.250000  -999.250000  -999.250000
 10338.250000 3.7385551929  -999.250000  -999.250000  -999.250000 0.1624047607  -999.250000  -999.250000  -999.250000
 10338.500000 3.7300701141 7.5943999290 0.0227099992 2.6064298153 0.1600354016 6.2756695747  -999.250000 0.0000000000
 10338.750000 3.7190902233 7.5943999290 0.0227099992 2.6064298153 0.1589509547 6.2756695747  -999.250000 0.0000000000
 10339.000000 3.7081100941 7.5943999290 0.0227099992 2.6064298153 0.1578664929 6.2756695747  -999.250000 0.0000000000
 10339.250000 3.6977500916 7.0646848679 0.0200000014 2.6061050892 0.1578669995 6.0128350258  -999.250000 0.0000000000
 10339.500000 3.6873900890 6.5349698067 0.0172900017 2.6057801247 0.1578675061 5.7500004768  -999.250000 0.0000000000
 10339.750000 3.7180349827 6.0052552223 0.0145800011 2.6054601669 0.1589919925 5.7500004768  -999.250000 0.0000000000
 10340.000000 3.7486801147 5.4755401611 0.0118699996 2.6051399708 0.1601164937 5.7500004768  -999.250000 0.0000000000
 10340.250000 3.7753551006 4.9458250999 0.0091599999 2.6048150063 0.1621087492 5.7500004768  -999.250000 0.0000000000
 10340.500000 3.8020300865 4.4161100388 0.0064499998 2.6044900417 0.1641010046 5.7500004768  -999.250000 0.0000000000
 10340.750000 3.8165152073 3.8863949776 0.0037399998 2.6041650772 0.1661353111 5.9571404457  -999.250000 0.0000000000
 10341.000000 3.8310000896 3.3566799164 0.0010299999 2.6038401127 0.1681696028 6.1642799377  -999.250000 0.0000000000
 10341.250000 3.8301348686 3.3566799164 0.0010299999 2.6038401127 0.1690222621 6.1642751694  -999.250000 0.0000000000
 10341.500000 3.8292698860 3.3566799164 0.0010299999 2.6038401127 0.1698749065 6.1642699242  -999.250000 0.0000000000
 10341.750000 3.7966549397 3.3566799164 0.0010299999 2.6038401127 0.1698754430 6.1642699242  -999.250000 0.0000000000
 10342.000000 3.7640399933 3.3566799164 0.0010299999 2.6038401127 0.1698759943 6.1642699242  -999.250000 0.0000000000
 10342.250000 3.8979349136 3.4311947823 0.0037900000 2.6146900654 0.1673000455 5.9571352005  -999.250000 0.0000000000
 10342.500000 4.0318298340 3.5057098866 0.0065500000 2.6255400181 0.1647240967 5.7500004768  -999.250000 0.0000000000
 10342.750000 3.9718999863 3.5802249908 0.0093050003 2.6363949776 0.1612092555 5.7500004768  -999.250000 0.0000000000
 10343.000000 3.9119699001 3.6547400951 0.0120600006 2.6472499371 0.1576943994 5.7500004768  -999.250000 0.0000000000
 10343.250000 3.8309249878 3.7292599678 0.0148200002 2.6580998898 0.1543301046 5.7889952660  -999.250000 0.0000000000
 10343.500000 3.7498800755 3.8037800789 0.0175800007 2.6689498425 0.1509657949 5.8279900551  -999.250000 0.0000000000
 10343.750000 3.7464401722 3.8055150509 0.0203399993 2.6798048019 0.1499328017 6.0428948402  -999.250000 0.0000000000
 10344.000000 3.7430000305 3.8072500229 0.0230999999 2.6906599998 0.1488997936 6.2578001022  -999.250000 0.0000000000
 10344.250000 3.7341749668 3.8072500229 0.0230999999 2.6906599998 0.1517462879 6.2577953339  -999.250000 0.0000000000
 10344.500000 3.7253499031 3.8072500229 0.0230999999 2.6906599998 0.1545927972 6.2577900887  -999.250000 0.0000000000
 10344.750000 3.7110447884 3.7279798985 0.0356150009 2.6907849312 0.1582577974 6.0038952827  -999.250000 0.0000000000
 10345.000000 3.6967399120 3.6487100124 0.0481300019 2.6909098625 0.1619227976 5.7500004768  -999.250000 0.0000000000
 10345.250000 3.6938700676 3.5694351196 0.0606399998 2.6910300255 0.1658018976 5.7500004768  -999.250000 0.0000000000
 10345.500000 3.6909999847 3.4901599884 0.0731500015 2.6911499500 0.1696809977 5.7500004768  -999.250000 0.0000000000
 10345.750000 3.6866450310 3.4108901024 0.0856650025 2.6912748814 0.1703572422 6.1832399368  -999.250000 0.0000000000
 10346.000000 3.6822900772 3.3316199780 0.0981800035 2.6913998127 0.1710335016 6.6164798737  -999.250000 0.0000000000
 10346.250000 3.6552450657 3.2523450851 0.0981800035 2.6913998127 0.1712303460 6.6164798737  -999.250000 0.0000000000
 10346.500000 3.6282000542 3.1730699539 0.0981800035 2.6913998127 0.1714272052 6.6164798737  -999.250000 0.0000000000
 10346.750000 3.5795850754 3.0937950611 0.0743800029 2.6804049015 0.1722576022 6.1832404137  -999.250000 0.0000000000
 10347.000000 3.5309700966 3.0145199299 0.0505800024 2.6694099903 0.1730879992 5.7500004768  -999.250000 0.0000000000
 10347.250000 3.4956300259 2.9352500439 0.0267850012 2.6584100723 0.1739211529 5.7500004768  -999.250000 0.0000000000
 10347.500000 3.4602899551 2.8559799194 0.0029899999 2.6474099159 0.1747543067 5.7500004768  -999.250000 0.0000000000
 10347.750000 3.4451301098 2.7767050266 -0.020810001 2.6364150047 0.1753883958 5.9657802582  -999.250000 0.0220793895
 10348.000000 3.4299700260 2.6974298954 -0.044610001 2.6254198551 0.1760224998 6.1815600395  -999.250000 0.0441587791
 10348.250000 3.4433898926 2.6974298954 -0.044610001 2.6254198551 0.1782410443 6.1815600395  -999.250000 0.0440193452
 10348.500000 3.4568099976 2.6974298954 -0.044610001 2.6254198551 0.1804596037 6.1815600395  -999.250000 0.0438799113
 10348.750000 3.4309699535 2.6974298954 -0.044610001 2.6254198551 0.1810757071 6.1815600395  -999.250000 0.0438413993
 10349.000000 3.4051299095 2.6974298954 -0.044610001 2.6254198551 0.1816917956 6.1815600395  -999.250000 0.0438028909
 10349.250000 3.4004650116 2.8271150589 -0.050510000 2.6016798019 0.1831022501 5.9657802582  -999.250000 0.0561838076
 10349.500000 3.3958001137 2.9567999840 -0.056410000 2.5779399872 0.1845127046 5.7500004768  -999.250000 0.0685647279
 10349.750000 3.3856651783 3.0864849091 -0.062309999 2.5541949272 0.1812128127 5.7892103195  -999.250000 0.0812736079
 10350.000000 3.3755300045 3.2161700726 -0.068209998 2.5304498672 0.1779129058 5.8284201622  -999.250000 0.0939824879
 10350.250000 3.3452899456 3.2194099426 -0.074110001 2.5067100525 0.1768788099 5.9570899010  -999.250000 0.1065873951
 10350.500000 3.3150498867 3.2226500511 -0.080010004 2.4829699993 0.1758446991 6.0857596397  -999.250000 0.1191923022
 10350.750000 3.2626450062 3.2226500511 -0.080010004 2.4829699993 0.1760581434 6.0857596397  -999.250000 0.1191801056
 10351.000000 3.2102398872 3.2226500511 -0.080010004 2.4829699993 0.1762716025 6.0857596397  -999.250000 0.1191679016
 10351.250000 3.1893150806 3.4902448654 -0.050115000 2.5151150227 0.1799003482 6.1216149330  -999.250000 0.0985994413
 10351.500000 3.1683900356 3.7578399181 -0.020219998 2.5472600460 0.1835290939 6.1574702263  -999.250000 0.0780309737
 10351.750000 3.1614949703 4.0254297256 -0.002075000 2.6211099625 0.1901527494 6.1498651505  -999.250000 0.0464364365
 10352.000000 3.1545999050 4.2930197716 0.0160699990 2.6949598789 0.1967764050 6.1422595978  -999.250000 0.0148419002
 10352.250000 3.1260099411 4.5606098175 0.0160699990 2.6949598789 0.1938818544 6.1422595978  -999.250000 0.0150383646
 10352.500000 3.0974199772 4.8281998634 0.0160699990 2.6949598789 0.1909873039 6.1422595978  -999.250000 0.0152348299
 10352.750000 3.0835149288 5.0957951546 0.0046449993 2.6783149242 0.1951044053 6.1767749786  -999.250000 0.0076174149
 10353.000000 3.0696101189 5.3633899689 -0.006780000 2.6616699696 0.1992215067 6.2112898827  -999.250000 0.0000000000
 10353.250000 3.0881152153 5.6309800148 0.0373250023 2.7066299915 0.1960529536 6.2993097305  -999.250000 0.0000000000
 10353.500000 3.1066200733 5.8985700607 0.0814300030 2.7515900135 0.1928844005 6.3873300552  -999.250000 0.0000000000
 10353.750000 3.1599249840 5.8768653870 0.0728900060 2.7044651508 0.1989022940 6.3861551285  -999.250000 0.0000000000
