# LAS format log file from PETREL
# Project units are specified as depth units
#==================================================================
~Version information
VERS.   2.0:
WRAP.   NO:
#==================================================================
~Well
STRT .ft      8654.0000000 :
STOP .ft      12882.500000 :
STEP .ft     0.25000000 :
NULL .        -999.250000 :
COMP.           : COMPANY
WELL.  GS324-4A(EDFU-A3A)   : WELL
FLD.            : FIELD
LOC.            : LOCATION
SRVC.           : SERVICE COMPANY
DATE.  2024-07-08 09:12:30   : Log Export Date {yyyy-MM-dd HH:mm:ss}
PROV.           : PROVINCE
UWI.   EGYPT2110901   : UNIQUE WELL ID
API.            : API NUMBER
#==================================================================
~Curve
DEPT .ft                   : DEPTH
RD .ohm.m                 : RD
PEF .b/e                  : PEF
DRHO .g/cm3               : DRHO
RHOB .g/cm3               : RHOB
NPHI .ft3/ft3             : NPHI
CALI .in                  : CALI
GR .gAPI                  : GR
PHI_FINAL .ft3/ft3        : PHI_FINAL
~Parameter
#==================================================================
~Ascii
# ...
 10830.000000 58.186359406 5.4417700768 0.0228599999 2.6414098740 0.0492299981 6.1183300018 146.18620300 0.0000000000
 10830.250000 58.368030548 5.2445750237 0.0166450012 2.6489498615 0.0474938005 6.1019802094 146.18620300 0.0000000000
 10830.500000 58.549701691 5.0473799706 0.0104300007 2.6564900875 0.0457575992 6.0856299400 146.18620300 0.0000000000
 10830.750000 57.723758698 5.0224099159 0.0067600003 2.6590199471 0.0450265519 6.0639553070 110.38551331 0.0000000000
 10831.000000 56.897811890 4.9974398613 0.0030900000 2.6615500450 0.0442955010 6.0422801971 74.584823608 0.0000000000
 10831.250000 58.696701050 4.8480601311 0.0022300000 2.6600351334 0.0443425998 6.0429348946 69.447601318 0.0016950455
 10831.500000 60.495590210 4.6986799240 0.0013700000 2.6585199833 0.0443896987 6.0435900688 64.310379028 0.0033900910
 10831.750000 62.035125732 4.6031103134 0.0025249999 2.6589400768 0.0466871969 6.0306248665 64.310379028 0.0062900418
 10832.000000 63.574661255 4.5075402260 0.0036800001 2.6593601704 0.0489846990 6.0176596642 64.310379028 0.0091899931
 10832.250000 63.742984772 4.4534602165 0.0031400002 2.6567301750 0.0524682999 6.0274496078 64.310379028 0.0119845364
 10832.500000 63.911308289 4.3993802071 0.0026000000 2.6541001797 0.0559519008 6.0372400284 64.310379028 0.0147790797
 10832.750000 62.021331787 4.3797202110 -0.006895000 2.6262352467 0.0612192005 6.0020351410 62.392486572 0.0435477644
 10833.000000 60.131351471 4.3600602150 -0.016390000 2.5983700752 0.0664865002 5.9668297768 60.474590302 0.0723164529
 10833.250000 58.515213013 4.6349501610 -0.019880001 2.5874300003 0.0698131472 5.9628295898 58.556694031 0.0800683051
 10833.500000 56.899070740 4.9098401070 -0.023370001 2.5764899254 0.0731398016 5.9588298798 56.638801575 0.0878201500
 10833.750000 52.709514618 5.0899949074 -0.011800000 2.5785298347 0.0761676952 5.9823246002 61.661857605 0.0856942683
 10834.000000 48.519958496 5.2701501846 -0.000230000 2.5805699825 0.0791955963 6.0058197975 66.684913635 0.0835683867
 10834.250000 50.634075165 5.6683449745 -0.001870000 2.5782599449 0.0799766928 6.0120196342 71.707969666 0.0778124407
 10834.500000 52.748191833 6.0665397644 -0.003510000 2.5759499073 0.0807577968 6.0182199478 76.731033325 0.0720564872
 10834.750000 49.826702118 6.0476450920 0.0074549997 2.6011948586 0.0805960521 6.0407896042 87.073966980 0.0394602045
 10835.000000 46.905208588 6.0287499428 0.0184199996 2.6264400482 0.0804343000 6.0633597374 97.416900635 0.0068639182
 10835.250000 45.427631378 5.7274451256 0.0127050001 2.6304199696 0.0795252994 6.0600600243 97.416900635 0.0042139441
 10835.500000 43.950050354 5.4261398315 0.0069899997 2.6343998909 0.0786162987 6.0567598343 97.416900635 0.0015639700
 10835.750000 49.261680603 5.1494498253 0.0095349997 2.6387648582 0.0782174990 6.0666847229 97.416900635 0.0007819850
 10836.000000 54.573310852 4.8727598190 0.0120799998 2.6431298256 0.0778186992 6.0766100883 97.416900635 0.0000000000
 10836.250000 65.641502380 4.5196552277 0.0068449997 2.6263148785 0.0791644454 6.0751500130 96.672958374 0.0051642801
 10836.500000 76.709701538 4.1665501595 0.0016100000 2.6094999313 0.0805101991 6.0736899376 95.929008484 0.0103285601
 10836.750000 82.290557861 4.0047049522 0.0022400001 2.6206099987 0.0811557472 6.0668449402 95.185066223 0.0105330050
 10837.000000 87.871421814 3.8428599834 0.0028700000 2.6317200661 0.0818013027 6.0599999428 94.441116333 0.0107374499
 10837.250000 90.028442383 3.7291698456 0.0015600000 2.6401150227 0.0811284482 6.0427198410 86.417541504 0.0103049483
 10837.500000 92.185462952 3.6154799461 0.0002500000 2.6485099792 0.0804556012 6.0254402161 78.393966675 0.0098724477
 10837.750000 95.336563110 3.7583999634 0.0009600000 2.6656999588 0.0767137557 6.0264248848 70.370391846 0.0049362238
 10838.000000 98.487670898 3.9013199806 0.0016699999 2.6828899384 0.0729719028 6.0274100304 62.346820831 0.0000000000
 10838.250000 101.90148163 3.8682899475 0.0007750000 2.6789200306 0.0683700070 6.0355648994 62.346820831 0.0000000000
 10838.500000 105.31529999 3.8352599144 -0.000120000 2.6749498844 0.0637681037 6.0437197685 62.346820831 0.0000000000
 10838.750000 102.34021759 4.1616396904 0.0036849999 2.6719899178 0.0592102520 6.0435252190 50.200149536 0.0047368780
 10839.000000 99.365127563 4.4880199432 0.0074899998 2.6690299511 0.0546524003 6.0433301926 38.053478241 0.0094737560
 10839.250000 102.34635925 4.6425046921 0.0072500003 2.6641349792 0.0509148501 6.0266351700 39.636501312 0.0047368780
 10839.500000 105.32759857 4.7969899178 0.0070100003 2.6592400074 0.0471772999 6.0099396706 41.219528198 0.0000000000
 10839.750000 111.37804413 4.5625452995 0.0136299999 2.6687300205 0.0446413010 6.0293798447 42.802551270 0.0000000000
 10840.000000 117.42849731 4.3281002045 0.0202500001 2.6782200336 0.0421052985 6.0488200188 44.385578156 0.0000000000
 10840.250000 123.34474945 4.3754301071 0.0160850007 2.6799600124 0.0392948017 6.0421500206 44.385578156 0.0000000000
 10840.500000 129.26100159 4.4227600098 0.0119200004 2.6816999912 0.0364843011 6.0354800224 44.385578156 0.0000000000
 10840.750000 119.72630310 4.3512701988 0.0200200006 2.6813700199 0.0344118029 6.0899796486 44.385578156 0.0000000000
 10841.000000 110.19159698 4.2797799110 0.0281199999 2.6810400486 0.0323393010 6.1444797516 44.385578156 0.0000000000
 10841.250000 125.30960083 4.8622698784 0.0286450014 2.6820402145 0.0303048491 6.1768894196 44.385578156 0.0000000000
 10841.500000 140.42759705 5.4447598457 0.0291700009 2.6830401421 0.0282703992 6.2092995644 44.385578156 0.0000000000
 10841.750000 164.14224243 5.8819499016 0.0275699999 2.6801700592 0.0279404502 6.1865549088 44.385578156 0.0000000000
 10842.000000 187.85690308 6.3191399574 0.0259699989 2.6772999763 0.0276104994 6.1638102531 44.385578156 0.0000000000
 10842.250000 201.23599243 5.2618651390 0.0257550012 2.6857099533 0.0283865500 6.1594552994 51.448303223 0.0000000000
 10842.500000 214.61509705 4.2045898438 0.0255400017 2.6941201687 0.0291626006 6.1550998688 58.511028290 0.0000000000
 10842.750000 231.05104065 4.8316149712 0.0223850012 2.6933600903 0.0298415497 6.1208200455 57.129684448 0.0000000000
 10843.000000 247.48699951 5.4586400986 0.0192299988 2.6926000118 0.0305205006 6.0865402222 55.748340607 0.0000000000
 10843.250000 256.05068970 5.6971549988 0.0202999990 2.6937150955 0.0311497990 6.0832953453 54.367000580 0.0000000000
 10843.500000 264.61441040 5.9356698990 0.0213700011 2.6948301792 0.0317790993 6.0800499916 52.985660553 0.0000000000
 10843.750000 281.66528320 6.4924697876 0.0204500016 2.6933851242 0.0303774998 6.0567903519 47.871276855 0.0000000000
 10844.000000 298.71618652 7.0492701530 0.0195300002 2.6919398308 0.0289759003 6.0335302353 42.756889343 0.0000000000
 10844.250000 312.18569946 6.7364253998 0.0166050009 2.6864149570 0.0278232004 6.0386099815 42.756889343 0.0000000000
 10844.500000 325.65521240 6.4235801697 0.0136799999 2.6808898449 0.0266705006 6.0436897278 42.756889343 0.0000000000
 10844.750000 330.45126343 5.7843704224 0.0140799992 2.6797099113 0.0241352003 6.0834546089 44.001239777 0.0000000000
 10845.000000 335.24731445 5.1451601982 0.0144799994 2.6785299778 0.0215999000 6.1232199669 45.245590210 0.0000000000
 10845.250000 355.97830200 4.9489603043 0.0167849995 2.6772050858 0.0202644505 6.1332750320 46.489936829 0.0000000000
 10845.500000 376.70928955 4.7527599335 0.0190900005 2.6758799553 0.0189289991 6.1433300972 47.734279633 0.0000000000
 10845.750000 392.96139526 4.4453101158 0.0120050004 2.6818449497 0.0180190001 6.1270151138 45.245586395 0.0000000000
 10846.000000 409.21350098 4.1378598213 0.0049200002 2.6878099442 0.0171089992 6.1106996536 42.756889343 0.0000000000
 10846.250000 400.76571655 4.3520946503 0.0045600003 2.6880300045 0.0169752501 6.0890049934 42.756889343 0.0000000000
 10846.500000 392.31790161 4.5663299561 0.0041999999 2.6882500648 0.0168414991 6.0673098564 42.756889343 0.0000000000
 10846.750000 430.75418091 4.5208101273 -0.002570000 2.6849150658 0.0163939502 6.0460901260 41.957767487 0.0000000000
