# LAS format log file from PETREL
# Project units are specified as depth units
#==================================================================
~Version information
VERS.   2.0:
WRAP.   NO:
#==================================================================
~Well
STRT .ft      8654.0000000 :
STOP .ft      12882.500000 :
STEP .ft     0.25000000 :
NULL .        -999.250000 :
COMP.           : COMPANY
WELL.  GS324-4A(EDFU-A3A)   : WELL
FLD.            : FIELD
LOC.            : LOCATION
SRVC.           : SERVICE COMPANY
DATE.  2024-07-08 09:12:30   : Log Export Date {yyyy-MM-dd HH:mm:ss}
PROV.           : PROVINCE
UWI.   EGYPT2110901   : UNIQUE WELL ID
API.            : API NUMBER
#==================================================================
~Curve
DEPT .ft                   : DEPTH
RD .ohm.m                 : RD
PEF .b/e                  : PEF
DRHO .g/cm3               : DRHO
RHOB .g/cm3               : RHOB
NPHI .ft3/ft3             : NPHI
CALI .in                  : CALI
GR .gAPI                  : GR
PHI_FINAL .ft3/ft3        : PHI_FINAL
~Parameter
#==================================================================
~Ascii
# ...
 11323.000000 4.9405698776 3.8074500561 0.0578199998 2.3972599506 0.2572380900 7.0197000504 68.328826904 0.0000000000
 11323.250000 4.8002400398 3.7475650311 0.0665849969 2.4289000034 0.2589874268 6.9920701981 70.398933411 0.0000000000
 11323.500000 4.6599102020 3.6876800060 0.0753500015 2.4605400562 0.2607367933 6.9644403458 72.469039917 0.0000000000
 11323.750000 4.6478753090 3.9538698196 0.0915549994 2.4703800678 0.2605167627 6.9871997833 72.469039917 0.0000000000
 11324.000000 4.6358399391 4.2200598717 0.1077600047 2.4802200794 0.2602967024 7.0099596977 72.469039917 0.0000000000
 11324.250000 4.6358399391 4.3274798393 0.0969550014 2.4709551334 0.2607478499 7.0313396454 70.398933411 0.0000000000
 11324.500000 4.6358399391 4.4348998070 0.0861499980 2.4616899490 0.2611989975 7.0527200699 68.328826904 0.0000000000
 11324.750000 4.6569547653 4.5738096237 0.0963749960 2.4405300617 0.2633093894 7.1179347038 68.328826904 0.0000000000
 11325.000000 4.6780700684 4.7127199173 0.1066000015 2.4193701744 0.2654198110 7.1831498146 68.328826904 0.0000000000
 11325.250000 4.7437949181 4.4893798828 0.1083899960 2.4243750572 0.2622021139 7.1777253151 68.328826904 0.0000000000
 11325.500000 4.8095197678 4.2660398483 0.1101799980 2.4293799400 0.2589843869 7.1723003387 68.328826904 0.0000000000
 11325.750000 4.8357200623 4.5752201080 0.1272950023 2.4324898720 0.2585479617 7.1217350960 68.328826904 0.0000000000
 11326.000000 4.8619198799 4.8843998909 0.1444099993 2.4356000423 0.2581115067 7.0711698532 68.328826904 0.0000000000
 11326.250000 4.8619198799 4.8259096146 0.1287599951 2.4591300488 0.2555721402 6.9380650520 68.328826904 0.0000000000
 11326.500000 4.8619198799 4.7674198151 0.1131099984 2.4826598167 0.2530328035 6.8049602509 68.328826904 0.0000000000
 11326.750000 4.8415851593 4.8186349869 0.1215949953 2.4904799461 0.2526708543 6.7976703644 68.328826904 0.0000000000
 11327.000000 4.8212499619 4.8698501587 0.1300799996 2.4983000755 0.2523089051 6.7903800011 68.328826904 0.0000000000
 11327.250000 4.9882698059 5.1629099846 0.1438199878 2.5043001175 0.2550798059 6.8159298897 70.398933411 0.0000000000
 11327.500000 5.1552901268 5.4559698105 0.1575599909 2.5103001595 0.2578507066 6.8414797783 72.469039917 0.0000000000
 11327.750000 4.9556751251 5.2357349396 0.1706999838 2.5025150776 0.2621485591 6.9229397774 72.997985840 0.0000000000
 11328.000000 4.7560601234 5.0155000687 0.1838399917 2.4947299957 0.2664464116 7.0043997765 73.526931763 0.0000000000
 11328.250000 4.7982549667 5.1917300224 0.1734700054 2.4766600132 0.2689783871 7.0192399025 74.055877686 0.0000000000
 11328.500000 4.8404498100 5.3679599762 0.1631000042 2.4585900307 0.2715103924 7.0340800285 74.584823608 0.0000000000
 11328.750000 4.9809899330 5.0164799690 0.1737649888 2.4520201683 0.2656047046 7.1342949867 73.526931763 0.0000000000
 11329.000000 5.1215300560 4.6649999619 0.1844299883 2.4454500675 0.2596989870 7.2345104218 72.469039917 0.0000000000
 11329.250000 5.3279299736 4.5436949730 0.1711750031 2.4544398785 0.2580827475 7.2353801727 72.469039917 0.0000000000
 11329.500000 5.5343298912 4.4223899841 0.1579200029 2.4634299278 0.2564665079 7.2362504005 72.469039917 0.0000000000
 11329.750000 5.5343298912 4.2231349945 0.1547299922 2.4609000683 0.2549540997 7.2458000183 72.469039917 0.0000000000
 11330.000000 5.5343298912 4.0238800049 0.1515399963 2.4583702087 0.2534416914 7.2553501129 72.469039917 0.0000000000
 11330.250000 5.7534399033 4.1079301834 0.1485549957 2.4634852409 0.2511848807 7.2048296928 72.469039917 0.0000000000
 11330.500000 5.9725499153 4.1919798851 0.1455700099 2.4686000347 0.2489280999 7.1543097496 72.469039917 0.0000000000
 11330.750000 5.9131150246 4.2011251450 0.1420300007 2.4651150703 0.2453328967 7.0892248154 70.398933411 0.0000000000
 11331.000000 5.8536801338 4.2102699280 0.1384900063 2.4616298676 0.2417376935 7.0241398811 68.328826904 0.0000000000
 11331.250000 5.8536801338 4.1428999901 0.1390749961 2.4924600124 0.2413859516 6.9500999451 68.328826904 0.0000000000
 11331.500000 5.8536801338 4.0755300522 0.1396600008 2.5232901573 0.2410341948 6.8760600090 68.328826904 0.0000000000
 11331.750000 6.0521249771 4.1301898956 0.1342750043 2.5273349285 0.2368270457 6.8420848846 67.822715759 0.0000000000
 11332.000000 6.2505698204 4.1848502159 0.1288899928 2.5313799381 0.2326198965 6.8081097603 67.316596985 0.0000000000
 11332.250000 6.3104147911 4.3724899292 0.1274999976 2.5477597713 0.2291986048 6.7751946449 66.810493469 0.0000000000
 11332.500000 6.3702597618 4.5601301193 0.1261100024 2.5641398430 0.2257772982 6.7422795296 66.304382324 0.0000000000
 11332.750000 6.3291249275 4.8059401512 0.1189400032 2.5642848015 0.2231415957 6.7033400536 66.304382324 0.0000000000
 11333.000000 6.2879900932 5.0517501831 0.1117699966 2.5644299984 0.2205058932 6.6644001007 66.304382324 0.0000000000
 11333.250000 6.2172651291 4.8929901123 0.0977400020 2.5621151924 0.2217886448 6.6178054810 69.386711121 0.0000000000
 11333.500000 6.1465401649 4.7342300415 0.0837099999 2.5598001480 0.2230713964 6.5712103844 72.469039917 0.0000000000
 11333.750000 6.1496701241 4.5748147964 0.0805350021 2.5577249527 0.2277567983 6.5925254822 72.469039917 0.0000000000
 11334.000000 6.1528000832 4.4154000282 0.0773600042 2.5556499958 0.2324422002 6.6138401031 72.469039917 0.0000000000
 11334.250000 6.2298002243 4.2305498123 0.0747950003 2.5539448261 0.2341933101 6.6634202003 72.469039917 0.0000000000
 11334.500000 6.3067998886 4.0457000732 0.0722300038 2.5522398949 0.2359444052 6.7130002975 72.469039917 0.0000000000
 11334.750000 6.3305449486 4.0224599838 0.0835549980 2.5447800159 0.2401044518 6.7688455582 72.469039917 0.0000000000
 11335.000000 6.3542900085 3.9992198944 0.0948799998 2.5373201370 0.2442644984 6.8246903419 72.469039917 0.0000000000
 11335.250000 6.3226852417 3.7595899105 0.0947000012 2.5272750854 0.2426955998 6.7974653244 72.469039917 0.0000000000
 11335.500000 6.2910799980 3.5199599266 0.0945199952 2.5172300339 0.2411267012 6.7702398300 72.469039917 0.0000000000
 11335.750000 6.1740851402 3.4901399612 0.1011299938 2.5111701488 0.2387508601 6.7626099586 72.469039917 0.0000000000
 11336.000000 6.0570898056 3.4603199959 0.1077399999 2.5051100254 0.2363750041 6.7549796104 72.469039917 0.0000000000
 11336.250000 6.0336751938 3.5677549839 0.1305299997 2.5133998394 0.2350203991 6.8313946724 72.469039917 0.0000000000
 11336.500000 6.0102601051 3.6751899719 0.1533200145 2.5216898918 0.2336657941 6.9078097343 72.469039917 0.0000000000
 11336.750000 6.0146350861 4.0031147003 0.1483150125 2.4935901165 0.2308547944 6.8767099380 72.469039917 0.0000000000
 11337.000000 6.0190100670 4.3310399055 0.1433099955 2.4654901028 0.2280437946 6.8456096649 72.469039917 0.0000000000
 11337.250000 6.1962347031 4.3828597069 0.1271550059 2.4725849628 0.2311951369 6.8411397934 71.426376343 0.0000000000
 11337.500000 6.3734598160 4.4346799850 0.1110000014 2.4796798229 0.2343464941 6.8366699219 70.383712769 0.0000000000
 11337.750000 6.2965650558 4.6012649536 0.0848549977 2.4877200127 0.2350171953 6.7912449837 70.383712769 0.0000000000
 11338.000000 6.2196698189 4.7678499222 0.0587099977 2.4957599640 0.2356878966 6.7458200455 70.383712769 0.0000000000
 11338.250000 6.1800899506 4.6733098030 0.0708099976 2.4891550541 0.2381627560 6.7559652328 70.383712769 0.0000000000
 11338.500000 6.1405100822 4.5787701607 0.0829100013 2.4825501442 0.2406376004 6.7661099434 70.383712769 0.0000000000
 11338.750000 6.1254453659 4.7430353165 0.0959099978 2.4697499275 0.2400940955 6.8140549660 70.383712769 0.0000000000
 11339.000000 6.1103801727 4.9072999954 0.1089100018 2.4569499493 0.2395506054 6.8619999886 70.383712769 0.0000000000
 11339.250000 5.9820251465 4.7373700142 0.1192799956 2.4432499409 0.2399621010 6.9383497238 69.356269836 0.0000000000
 11339.500000 5.8536701202 4.5674400330 0.1296499968 2.4295499325 0.2403735965 7.0146999359 68.328826904 0.0000000000
 11339.750000 5.8110103607 4.5065951347 0.0862199962 2.3995599747 0.2444961518 6.9864001274 68.328826904 0.0000000000
