# LAS format log file from PETREL
# Project units are specified as depth units
#==================================================================
~Version information
VERS.   2.0:
WRAP.   NO:
#==================================================================
~Well
STRT .ft      8654.0000000 :
STOP .ft      12882.500000 :
STEP .ft     0.25000000 :
NULL .        -999.250000 :
COMP.           : COMPANY
WELL.  GS324-4A(EDFU-A3A)   : WELL
FLD.            : FIELD
LOC.            : LOCATION
SRVC.           : SERVICE COMPANY
DATE.  2024-07-08 09:12:30   : Log Export Date {yyyy-MM-dd HH:mm:ss}
PROV.           : PROVINCE
UWI.   EGYPT2110901   : UNIQUE WELL ID
API.            : API NUMBER
#==================================================================
~Curve
DEPT .ft                   : DEPTH
RD .ohm.m                 : RD
PEF .b/e                  : PEF
DRHO .g/cm3               : DRHO
RHOB .g/cm3               : RHOB
NPHI .ft3/ft3             : NPHI
CALI .in                  : CALI
GR .gAPI                  : GR
PHI_FINAL .ft3/ft3        : PHI_FINAL
~Parameter
#==================================================================
~Ascii
# ...
 10507.000000 1.9085799456 4.6477098465 0.1412700117 2.1549398899 0.4487122893 7.3110899925 52.985660553 0.0000000000
 10507.250000 1.9707798958 4.4371051788 0.1511300057 2.1641399860 0.4399664104 7.3302645683 54.819839478 0.0000000000
 10507.500000 2.0329799652 4.2265000343 0.1609899998 2.1733400822 0.4312205017 7.3494396210 56.654018402 0.0000000000
 10507.750000 1.8977600336 3.9856650829 0.1358100027 2.1725101471 0.4288364947 7.3151597977 56.189765930 0.0000000000
 10508.000000 1.7625399828 3.7448298931 0.1106299981 2.1716799736 0.4264524877 7.2808799744 55.725509644 0.0000000000
 10508.250000 1.6194900274 3.7201349735 0.0997299999 2.1739249229 0.4207626581 7.2984647751 55.261260986 0.0000000000
 10508.500000 1.4764399529 3.6954400539 0.0888300017 2.1761698723 0.4150727987 7.3160500526 54.797008514 0.0000000000
 10508.750000 1.4390048981 3.7676248550 0.0793450028 2.1865949631 0.4130985141 7.3462100029 54.797008514 0.0000000000
 10509.000000 1.4015699625 3.8398098946 0.0698600039 2.1970200539 0.4111241996 7.3763699532 54.797008514 0.0000000000
 10509.250000 1.4047399759 4.1445598602 0.0919549987 2.2120149136 0.4079636037 7.4318399429 54.344169617 0.0000000000
 10509.500000 1.4079099894 4.4493098259 0.1140500009 2.2270100117 0.4048030078 7.4873104095 53.891330719 0.0000000000
 10509.750000 1.4454199076 4.6616349220 0.1223549992 2.2239151001 0.4023906589 7.4761252403 53.438495636 0.0000000000
 10510.000000 1.4829299450 4.8739600182 0.1306599975 2.2208199501 0.3999783099 7.4649400711 52.985660553 0.0000000000
 10510.250000 1.4648400545 4.9015398026 0.1342099905 2.1982600689 0.4034467936 7.4640550613 54.812229156 0.0000000000
 10510.500000 1.4467500448 4.9291200638 0.1377599984 2.1756999493 0.4069153070 7.4631695747 56.638801575 0.0000000000
 10510.750000 1.4443900585 4.7709550858 0.0997599959 2.1674799919 0.4173086882 7.3533797264 54.812232971 0.0000000000
 10511.000000 1.4420299530 4.6127901077 0.0617599972 2.1592600346 0.4277020991 7.2435898781 52.985660553 0.0000000000
 10511.250000 1.4751698971 4.8486647606 0.0754650012 2.1591801643 0.4303406477 7.2549147606 52.985660553 0.0000000000
 10511.500000 1.5083099604 5.0845398903 0.0891700014 2.1591000557 0.4329791963 7.2662396431 52.985660553 0.0000000000
 10511.750000 1.5648649931 5.1272249222 0.1112750024 2.1614248753 0.4398989379 7.2845196724 52.985660553 0.0000000000
 10512.000000 1.6214200258 5.1699099541 0.1333800107 2.1637499332 0.4468187094 7.3027997017 52.985660553 0.0000000000
 10512.250000 1.6589199305 4.9879550934 0.1482149959 2.1403851509 0.4481557608 7.3540496826 52.985660553 0.0000000000
 10512.500000 1.6964199543 4.8060002327 0.1630499959 2.1170201302 0.4494928122 7.4052996635 52.985660553 0.0000000000
 10512.750000 1.6709649563 4.6891498566 0.1679300070 2.0940251350 0.4585148990 7.4517698288 53.438495636 0.0000000000
 10513.000000 1.6455099583 4.5722999573 0.1728100032 2.0710301399 0.4675369859 7.4982404709 53.891330719 0.0000000000
 10513.250000 1.6255899668 4.5374698639 0.1534050107 2.0520050526 0.4682508409 7.4854555130 54.344169617 0.0000000000
 10513.500000 1.6056699753 4.5026397705 0.1340000033 2.0329799652 0.4689646959 7.4726700783 54.797008514 0.0000000000
 10513.750000 1.6159349680 4.4652600288 0.1454349905 2.0421700478 0.4664066434 7.5410199165 54.797008514 0.0000000000
 10514.000000 1.6261999607 4.4278798103 0.1568699926 2.0513601303 0.4638485909 7.6093702316 54.797008514 0.0000000000
 10514.250000 1.6269649267 4.3167300224 0.1360699981 2.0627799034 0.4731558859 7.5708751678 54.797008514 0.0000000000
 10514.500000 1.6277300119 4.2055802345 0.1152699962 2.0741999149 0.4824632108 7.5323796272 54.797008514 0.0000000000
 10514.750000 1.5961149931 4.2427749634 0.1193249971 2.0856099129 0.4814808071 7.5238652229 54.797008514 0.0000000000
 10515.000000 1.5644999743 4.2799701691 0.1233799979 2.0970199108 0.4804984033 7.5153503418 54.797008514 0.0000000000
 10515.250000 1.5492249727 4.6650047302 0.1542250067 2.1049549580 0.4873651862 7.5624098778 54.797008514 0.0000000000
 10515.500000 1.5339499712 5.0500397682 0.1850700080 2.1128900051 0.4942319989 7.6094698906 54.797008514 0.0000000000
 10515.750000 1.5613249540 5.2861499786 0.1989099979 2.0985050201 0.4839462936 7.6046800613 54.797008514 0.0000000000
 10516.000000 1.5887000561 5.5222601891 0.2127500027 2.0841200352 0.4736605883 7.5998902321 54.797008514 0.0000000000
 10516.250000 1.5906699896 5.6455101967 0.2062850147 2.0543100834 0.4840326011 7.6351346970 55.717903137 0.0000000000
 10516.500000 1.5926400423 5.7687602043 0.1998200119 2.0244998932 0.4944046140 7.6703796387 56.638801575 0.0000000000
 10516.750000 1.5624300241 5.5060253143 0.1675100029 2.0133099556 0.5018303394 7.6115899086 56.638801575 0.0000000000
 10517.000000 1.5322200060 5.2432899475 0.1351999938 2.0021200180 0.5092561245 7.5528001785 56.638801575 0.0000000000
 10517.250000 1.5834050179 5.0118398666 0.1080000028 1.9928750992 0.5117928982 7.6170697212 56.178352356 0.0000000000
 10517.500000 1.6345900297 4.7803897858 0.0808000043 1.9836300611 0.5143296719 7.6813397408 55.717899323 0.0000000000
 10517.750000 1.6075350046 4.7918248177 0.0988449976 2.0057449341 0.5040354729 7.7455348969 55.257453918 0.0000000000
 10518.000000 1.5804799795 4.8032598495 0.1168899983 2.0278599262 0.4937412143 7.8097300529 54.797008514 0.0000000000
 10518.250000 1.5812299252 4.9641046524 0.1240349934 2.0290448666 0.4846755266 7.8349547386 54.797008514 0.0000000000
 10518.500000 1.5819799900 5.1249499321 0.1311799884 2.0302300453 0.4756098092 7.8601799011 54.797008514 0.0000000000
 10518.750000 1.5973999500 5.1485400200 0.1371649802 2.0298101902 0.4732884765 7.8765449524 53.891334534 0.0000000000
 10519.000000 1.6128200293 5.1721301079 0.1431499869 2.0293900967 0.4709671140 7.8929100037 52.985660553 0.0000000000
 10519.250000 1.5976049900 5.3663549423 0.1335649937 2.0042550564 0.4789362550 7.8488798141 52.985660553 0.0000000000
 10519.500000 1.5823899508 5.5605797768 0.1239800006 1.9791200161 0.4869053960 7.8048496246 52.985660553 0.0000000000
 10519.750000 1.7800248861 5.5656599998 0.1192700043 1.9702050686 0.4885527492 7.7419648170 52.985660553 0.0000000000
 10520.000000 1.9776599407 5.5707402229 0.1145600006 1.9612900019 0.4902001023 7.6790800095 52.985660553 0.0000000000
 10520.250000 2.1510999203 5.7998299599 0.1218249947 1.9574600458 0.4889844656 7.6619353294 52.985660553 0.0000000000
 10520.500000 2.3245398998 6.0289201736 0.1290899962 1.9536299706 0.4877687991 7.6447901726 52.985660553 0.0000000000
 10520.750000 2.1719748974 5.7137651443 0.1233450025 1.9737550020 0.4873962402 7.5585451126 52.985660553 0.0000000000
 10521.000000 2.0194098949 5.3986101151 0.1176000014 1.9938800335 0.4870237112 7.4723000526 52.985660553 0.0000000000
 10521.250000 2.0098550320 5.5069947243 0.1131300032 1.9991899729 0.4805977643 7.4434752464 52.985660553 0.0000000000
 10521.500000 2.0002999306 5.6153798103 0.1086600050 2.0044999123 0.4741717875 7.4146499634 52.985660553 0.0000000000
 10521.750000 2.1513848305 5.3737750053 0.1153950021 2.0158448219 0.4804265797 7.3916950226 52.985660553 0.0000000000
 10522.000000 2.3024699688 5.1321702003 0.1221299991 2.0271899700 0.4866814017 7.3687396049 52.985660553 0.0000000000
 10522.250000 2.3794398308 5.3227248192 0.1168350056 2.0246350765 0.4864190221 7.3536601067 53.212078094 0.0000000000
 10522.500000 2.4564099312 5.5132799149 0.1115400046 2.0220799446 0.4861566126 7.3385801315 53.438499451 0.0000000000
 10522.750000 2.5691897869 5.6396050453 0.1297899932 2.0235099792 0.4842293561 7.4045896530 53.664913177 0.0000000000
 10523.000000 2.6819698811 5.7659301758 0.1480399966 2.0249400139 0.4823020995 7.4705996513 53.891330719 0.0000000000
 10523.250000 2.5034399033 5.6282453537 0.1273899972 2.0180950165 0.4808575213 7.4015946388 55.046253204 0.0000000000
 10523.500000 2.3249099255 5.4905600548 0.1067399979 2.0112500191 0.4794129133 7.3325896263 56.201179504 0.0000000000
 10523.750000 2.4291548729 5.2137203217 0.1122699976 2.0178849697 0.4740646183 7.3631443977 57.356101990 0.0000000000
