# LAS format log file from PETREL
# Project units are specified as depth units
#==================================================================
~Version information
VERS.   2.0:
WRAP.   NO:
#==================================================================
~Well
STRT .ft      8654.0000000 :
STOP .ft      12882.500000 :
STEP .ft     0.25000000 :
NULL .        -999.250000 :
COMP.           : COMPANY
WELL.  GS324-4A(EDFU-A3A)   : WELL
FLD.            : FIELD
LOC.            : LOCATION
SRVC.           : SERVICE COMPANY
DATE.  2024-07-08 09:12:30   : Log Export Date {yyyy-MM-dd HH:mm:ss}
PROV.           : PROVINCE
UWI.   EGYPT2110901   : UNIQUE WELL ID
API.            : API NUMBER
#==================================================================
~Curve
DEPT .ft                   : DEPTH
RD .ohm.m                 : RD
PEF .b/e                  : PEF
DRHO .g/cm3               : DRHO
RHOB .g/cm3               : RHOB
NPHI .ft3/ft3             : NPHI
CALI .in                  : CALI
GR .gAPI                  : GR
PHI_FINAL .ft3/ft3        : PHI_FINAL
~Parameter
#==================================================================
~Ascii
# ...
 11816.000000 6.8887400627 2.8779499531 0.0016900001 2.5879499912 0.2270873934 6.1426601410 81.114791870 0.0000000000
 11816.250000 7.3528947830 3.0066099167 0.0038199998 2.5849750042 0.2299658954 6.1710348129 83.367553711 0.0000000000
 11816.500000 7.8170499802 3.1352701187 0.0059499997 2.5820000172 0.2328443974 6.1994099617 85.620323181 0.0000000000
 11816.750000 7.7533049583 3.1640501022 0.0020799998 2.5801601410 0.2325674593 6.2137746811 85.620323181 0.0000000000
 11817.000000 7.6895599365 3.1928300858 -0.001790000 2.5783200264 0.2322905064 6.2281398773 85.620323181 0.0000000000
 11817.250000 7.6895599365 3.0711100101 -0.004795000 2.5821800232 0.2351082563 6.2236251831 85.620323181 0.0000000000
 11817.500000 7.6895599365 2.9493899345 -0.007800000 2.5860400200 0.2379260063 6.2191100121 85.620323181 0.0000000000
 11817.750000 7.5199499130 2.9673349857 -0.003710000 2.5891349316 0.2386907935 6.1979551315 85.620323181 0.0000000000
 11818.000000 7.3503398895 2.9852800369 0.0003800000 2.5922300816 0.2394555956 6.1767997742 85.620323181 0.0000000000
 11818.250000 7.5729498863 3.0306248665 0.0100499997 2.5997800827 0.2424808443 6.1783447266 84.493942261 0.0000000000
 11818.500000 7.7955598831 3.0759699345 0.0197199993 2.6073300838 0.2455060929 6.1798901558 83.367553711 0.0000000000
 11818.750000 7.7955598831 3.1149749756 0.0208400004 2.6098649502 0.2457213998 6.1902251244 82.241172791 0.0000000000
 11819.000000 7.7955598831 3.1539800167 0.0219599996 2.6123998165 0.2459367067 6.2005596161 81.114791870 0.0000000000
 11819.250000 7.8963146210 3.1086049080 0.0185300000 2.6070847511 0.2475814521 6.1863050461 82.233566284 0.0000000000
 11819.500000 7.9970698357 3.0632300377 0.0151000004 2.6017699242 0.2492261976 6.1720499992 83.352340698 0.0000000000
 11819.750000 7.9970698357 2.9848601818 0.0119950008 2.5884499550 0.2498388439 6.1601452827 82.233566284 0.0000000000
 11820.000000 7.9970698357 2.9064900875 0.0088900002 2.5751299858 0.2504515052 6.1482400894 81.114791870 0.0000000000
 11820.250000 8.4256753922 2.8590002060 0.0134650003 2.5830600262 0.2529052496 6.1842951775 81.114791870 0.0000000000
 11820.500000 8.8542804718 2.8115100861 0.0180400014 2.5909900665 0.2553589940 6.2203502655 81.114791870 0.0000000000
 11820.750000 8.8384256363 2.7775800228 0.0241650008 2.5871951580 0.2558884025 6.2710700035 83.367553711 0.0000000000
 11821.000000 8.8225698471 2.7436499596 0.0302900001 2.5834000111 0.2564178109 6.3217902184 85.620323181 0.0000000000
 11821.250000 8.8225698471 2.7867248058 0.0366049968 2.5806751251 0.2538178265 6.3452501297 86.769531250 0.0000000000
 11821.500000 8.8225698471 2.8297998905 0.0429199971 2.5779500008 0.2512178123 6.3687100410 87.918746948 0.0000000000
 11821.750000 8.1858797073 2.8793900013 0.0429649986 2.5751700401 0.2492534667 6.3529000282 86.769538879 0.0000000000
 11822.000000 7.5491900444 2.9289801121 0.0430100001 2.5723898411 0.2472891062 6.3370900154 85.620323181 0.0000000000
 11822.250000 7.4172897339 2.9315299988 0.0327299982 2.5782847404 0.2411224544 6.3039250374 84.138778687 0.0000000000
 11822.500000 7.2853899002 2.9340798855 0.0224500000 2.5841798782 0.2349558026 6.2707600594 82.657226563 0.0000000000
 11822.750000 6.9702448845 2.8383948803 0.0095349997 2.5880050659 0.2324289978 6.2309851646 79.694129944 0.0000000000
 11823.000000 6.6550998688 2.7427101135 -0.003380000 2.5918300152 0.2299021930 6.1912102699 76.731033325 0.0000000000
 11823.250000 6.4801597595 2.7189600468 -0.007240000 2.5919599533 0.2264798433 6.1502652168 74.600036621 0.0000000000
 11823.500000 6.3052201271 2.6952099800 -0.011100001 2.5920901299 0.2230574936 6.1093201637 72.469039917 0.0000000000
 11823.750000 6.1612100601 2.6734249592 -0.007245000 2.5905702114 0.2228706032 6.1177549362 72.469039917 0.0000000000
 11824.000000 6.0171999931 2.6516399384 -0.003390000 2.5890500546 0.2226836979 6.1261901855 72.469039917 0.0000000000
 11824.250000 6.2670650482 2.7116348743 -0.001060000 2.5852251053 0.2232009023 6.1168999672 72.469039917 0.0000000000
 11824.500000 6.5169301033 2.7716300488 0.0012700000 2.5813999176 0.2237181067 6.1076097488 72.469039917 0.0000000000
 11824.750000 6.6331048012 2.7734649181 0.0081400005 2.5890448093 0.2265052944 6.1308898926 72.469039917 0.0000000000
 11825.000000 6.7492799759 2.7753000259 0.0150100002 2.5966899395 0.2292924970 6.1541700363 72.469039917 0.0000000000
 11825.250000 6.9075098038 2.7635099888 0.0171499997 2.5949649811 0.2319005430 6.1787247658 74.600036621 0.0000000000
 11825.500000 7.0657401085 2.7517199516 0.0192900002 2.5932400227 0.2345086038 6.2032799721 76.731033325 0.0000000000
 11825.750000 7.1353950500 2.7639048100 0.0141500002 2.5916049480 0.2335931510 6.1949949265 80.608680725 0.0000000000
 11826.000000 7.2050499916 2.7760899067 0.0090100002 2.5899698734 0.2326776981 6.1867098808 84.486328125 0.0000000000
 11826.250000 7.2012500763 2.8190650940 0.0122299995 2.5874648094 0.2290236056 6.1933202744 85.053329468 0.0000000000
 11826.500000 7.1974501610 2.8620400429 0.0154499998 2.5849599838 0.2253694981 6.1999301910 85.620323181 0.0000000000
 11826.750000 7.4040203094 2.9374501705 0.0180750005 2.5876500607 0.2235545963 6.1723451614 85.620323181 0.0000000000
 11827.000000 7.6105899811 3.0128600597 0.0207000002 2.5903401375 0.2217396945 6.1447601318 85.620323181 0.0000000000
 11827.250000 7.6105899811 3.0767898560 0.0276400018 2.5950751305 0.2170370519 6.1634349823 82.264007568 0.0000000000
 11827.500000 7.6105899811 3.1407198906 0.0345800035 2.5998101234 0.2123343945 6.1821098328 78.907691956 0.0000000000
 11827.750000 8.3378000259 3.0265150070 0.0315150023 2.6036801338 0.2088124007 6.1638851166 77.298027039 0.0000000000
 11828.000000 9.0650100708 2.9123098850 0.0284500010 2.6075501442 0.2052904069 6.1456599236 75.688362122 0.0000000000
 11828.250000 9.0650100708 2.9076550007 0.0282899998 2.6032350063 0.1931056529 6.1751646996 74.078704834 0.0000000000
 11828.500000 9.0650100708 2.9030001163 0.0281299986 2.5989198685 0.1809208989 6.2046699524 72.469039917 0.0000000000
 11828.750000 9.3765649796 3.1020300388 0.0448049977 2.6104648113 0.1705109030 6.3077349663 71.426376343 0.0000000000
 11829.000000 9.6881198883 3.3010599613 0.0614800006 2.6220099926 0.1601009071 6.4107999802 70.383712769 0.0000000000
 11829.250000 9.6881198883 3.7855098248 0.0711549968 2.6395399570 0.1489353031 6.4604449272 70.383712769 0.0000000000
 11829.500000 9.6881198883 4.2699599266 0.0808300003 2.6570701599 0.1377696991 6.5100903511 70.383712769 0.0000000000
 11829.750000 10.440039635 4.7055048943 0.0768450052 2.6622250080 0.1262602061 6.4849052429 59.058998108 0.0000000000
 11830.000000 11.191960335 5.1410498619 0.0728600025 2.6673798561 0.1147506982 6.4597201347 47.734279633 0.0000000000
 11830.250000 13.293565750 5.9943799973 0.0488950014 2.6836900711 0.1041878983 6.3640403748 44.568229675 0.0000000000
 11830.500000 15.395170212 6.8477101326 0.0249300003 2.7000000477 0.0936250985 6.2683601379 41.402179718 0.0000000000
 11830.750000 15.395170212 6.2725648880 0.0214000009 2.6938600540 0.0826557502 6.2138848305 38.236129761 0.0000000000
 11831.000000 15.395170212 5.6974201202 0.0178700015 2.6877200603 0.0716864020 6.1594099998 35.070079803 0.0000000000
 11831.250000 17.623590469 5.5271201134 0.0088150008 2.6939499378 0.0649583042 6.1055650711 30.960304260 0.0072412002
 11831.500000 19.852010727 5.3568201065 -0.000240000 2.7001798153 0.0582301989 6.0517201424 26.850530624 0.0144824004
 11831.750000 18.697240829 4.8553199768 -0.006035000 2.7065999508 0.0538448505 6.0155353546 26.850530624 0.0185022596
 11832.000000 17.542470932 4.3538198471 -0.011830000 2.7130200863 0.0494594984 5.9793500900 26.850530624 0.0225221198
 11832.250000 17.352411270 4.5070147514 -0.004995000 2.7164700031 0.0473279506 5.9833250046 26.850530624 0.0189864747
 11832.500000 17.162349701 4.6602101326 0.0018400000 2.7199199200 0.0451963991 5.9872999191 26.850530624 0.0154508296
 11832.750000 17.517669678 4.3793153763 0.0021450000 2.7270998955 0.0437685512 5.9852151871 25.069631577 0.0114010973
