# LAS format log file from PETREL
# Project units are specified as depth units
#==================================================================
~Version information
VERS.   2.0:
WRAP.   NO:
#==================================================================
~Well
STRT .ft      8654.0000000 :
STOP .ft      12882.500000 :
STEP .ft     0.25000000 :
NULL .        -999.250000 :
COMP.           : COMPANY
WELL.  GS324-4A(EDFU-A3A)   : WELL
FLD.            : FIELD
LOC.            : LOCATION
SRVC.           : SERVICE COMPANY
DATE.  2024-07-08 09:12:30   : Log Export Date {yyyy-MM-dd HH:mm:ss}
PROV.           : PROVINCE
UWI.   EGYPT2110901   : UNIQUE WELL ID
API.            : API NUMBER
#==================================================================
~Curve
DEPT .ft                   : DEPTH
RD .ohm.m                 : RD
PEF .b/e                  : PEF
DRHO .g/cm3               : DRHO
RHOB .g/cm3               : RHOB
NPHI .ft3/ft3             : NPHI
CALI .in                  : CALI
GR .gAPI                  : GR
PHI_FINAL .ft3/ft3        : PHI_FINAL
~Parameter
#==================================================================
~Ascii
# ...
 11153.000000 220.23480225 4.8242301941 -0.009760000 2.6028800011 0.0532667004 6.0365800858 99.867553711 0.0570306405
 11153.250000 225.59930420 4.6503801346 -0.012980000 2.6131598949 0.0522703007 6.0175952911 102.36387634 0.0548466668
 11153.500000 230.96380615 4.4765300751 -0.016200000 2.6234400272 0.0512739010 5.9986104965 104.86019897 0.0526626892
 11153.750000 237.78930664 4.4949903488 -0.013030000 2.6292400360 0.0511304513 6.0014705658 100.90261841 0.0463506281
 11154.000000 244.61480713 4.5134501457 -0.009860000 2.6350400448 0.0509870015 6.0043301582 96.945037842 0.0400385708
 11154.250000 246.43969727 4.4089498520 -0.015435000 2.6313500404 0.0504625998 5.9907250404 92.987472534 0.0457906276
 11154.500000 248.26460266 4.3044500351 -0.021010000 2.6276597977 0.0499381982 5.9771199226 89.029907227 0.0515426807
 11154.750000 254.72718811 4.8444499969 -0.011995000 2.6305148602 0.0498959012 5.9853696823 85.072349548 0.0421439148
 11155.000000 261.18978882 5.3844499588 -0.002980000 2.6333701611 0.0498536006 5.9936199188 81.114791870 0.0327451490
 11155.250000 246.75399780 5.9381947517 0.0041200002 2.6330902576 0.0498175025 5.9975047112 81.114791870 0.0279173758
 11155.500000 232.31820679 6.4919400215 0.0112200007 2.6328101158 0.0497814007 6.0013899803 81.114791870 0.0230896007
 11155.750000 232.31820679 5.8535499573 0.0154600004 2.6382899284 0.0499448478 6.0063600540 81.114791870 0.0119597828
 11156.000000 232.31820679 5.2151598930 0.0197000001 2.6437699795 0.0501082987 6.0113301277 81.114791870 0.0008299649
 11156.250000 242.63969421 4.9680752754 0.0177500006 2.6497900486 0.0506776981 5.9966149330 81.114791870 0.0050930213
 11156.500000 252.96119690 4.7209901810 0.0158000011 2.6558101177 0.0512471013 5.9818997383 81.114791870 0.0093560778
 11156.750000 252.96119690 4.5781450272 0.0102000004 2.6624350548 0.0507695004 5.9802999496 82.241172791 0.0167556833
 11157.000000 252.96119690 4.4352998734 0.0046000001 2.6690599918 0.0502918996 5.9787001610 83.367553711 0.0241552908
 11157.250000 258.79309082 5.0753946304 0.0075099999 2.6729300022 0.0495104007 5.9848747253 84.493934631 0.0269958992
 11157.500000 264.62500000 5.7154898643 0.0104200002 2.6768000126 0.0487288982 5.9910497665 85.620323181 0.0298365094
 11157.750000 264.62500000 5.8669748306 0.0099499999 2.6687798500 0.0487788990 6.0036101341 83.397994995 0.0280289035
 11158.000000 264.62500000 6.0184597969 0.0094799995 2.6607599258 0.0488288999 6.0161700249 81.175666809 0.0262212995
 11158.250000 270.98846436 6.0911102295 0.0067900000 2.6539597511 0.0493060499 6.0059852600 78.953353882 0.0262384638
 11158.500000 277.35189819 6.1637601852 0.0041000000 2.6471598148 0.0497832000 5.9958000183 76.731033325 0.0262556300
 11158.750000 284.30194092 5.9051051140 -0.003430000 2.6418550014 0.0503097996 5.9995098114 76.731033325 0.0277249888
 11159.000000 291.25201416 5.6464500427 -0.010960000 2.6365499496 0.0508363992 6.0032200813 76.731033325 0.0291943494
 11159.250000 291.25201416 5.2378149033 -0.014385000 2.6351749897 0.0502381511 5.9928402901 76.731033325 0.0345924944
 11159.500000 291.25201416 4.8291797638 -0.017810000 2.6338000298 0.0496398993 5.9824600220 76.731033325 0.0399906412
 11159.750000 281.49890137 4.7375798225 -0.012060001 2.6358499527 0.0490913503 5.9950647354 80.700012207 0.0345337875
 11160.000000 271.74578857 4.6459798813 -0.006310000 2.6378998756 0.0485428013 6.0076699257 84.668991089 0.0290769301
 11160.250000 282.54598999 4.6166000366 -0.001025000 2.6300199032 0.0473351516 6.0099749565 88.637962341 0.0296542589
 11160.500000 293.34619141 4.5872201920 0.0042600003 2.6221399307 0.0461274981 6.0122799873 92.606941223 0.0302315895
 11160.750000 293.34619141 4.0301051140 0.0097300000 2.6309700012 0.0456295498 6.0484051704 90.262847900 0.0207305606
 11161.000000 293.34619141 3.4729900360 0.0152000003 2.6398000717 0.0451316014 6.0845303535 87.918746948 0.0112295300
 11161.250000 286.29534912 3.4028451443 0.0110300006 2.6365702152 0.0445628501 6.0785651207 82.016654968 0.0205144249
 11161.500000 279.24450684 3.3327000141 0.0068600001 2.6333401203 0.0439940989 6.0725998878 76.114562988 0.0297993198
 11161.750000 279.24450684 3.7652151585 0.0063450001 2.6362102032 0.0439953506 6.0538001060 70.212471008 0.0329090618
 11162.000000 279.24450684 4.1977300644 0.0058300002 2.6390800476 0.0439965986 6.0350003242 64.310379028 0.0360188000
 11162.250000 279.24450684 4.6588349342 0.0039000001 2.6344251633 0.0434222966 6.0162100792 64.310379028 0.0360411704
 11162.500000 279.24450684 5.1199398041 0.0019700001 2.6297700405 0.0428479984 5.9974198341 64.310379028 0.0360635407
 11162.750000 276.41784668 5.0931749344 0.0015100001 2.6323900223 0.0429761484 5.9978895187 64.310379028 0.0349596031
 11163.000000 273.59118652 5.0664100647 0.0010500000 2.6350100040 0.0431042984 5.9983596802 64.310379028 0.0338556617
 11163.250000 267.38986206 4.8540902138 -0.000195000 2.6322901249 0.0441211499 5.9982900620 64.310379028 0.0310931671
 11163.500000 261.18850708 4.6417698860 -0.001440000 2.6295700073 0.0451380014 5.9982199669 64.310379028 0.0283306707
 11163.750000 264.37490845 4.9896049500 0.0000050000 2.6270301342 0.0461659506 6.0247049332 66.360191345 0.0265496802
 11164.000000 267.56130981 5.3374400139 0.0014500001 2.6244900227 0.0471938998 6.0511903763 68.410011292 0.0247686896
 11164.250000 270.18920898 5.2916202545 0.0044650002 2.6255798340 0.0478205495 6.0584897995 70.459823608 0.0136736715
 11164.500000 272.81710815 5.2458000183 0.0074800001 2.6266698837 0.0484471992 6.0657896996 72.509643555 0.0025786529
 11164.750000 275.08160400 5.5099949837 0.0077650002 2.6327149868 0.0485247001 6.0781445503 72.489341736 0.0079841167
 11165.000000 277.34609985 5.7741899490 0.0080500003 2.6387600899 0.0486022010 6.0904998779 72.469039917 0.0133895800
 11165.250000 274.55221558 5.3975801468 0.0093449997 2.6331851482 0.0488038510 6.0825247765 74.600036621 0.0191891603
 11165.500000 271.75830078 5.0209698677 0.0106400000 2.6276102066 0.0490055010 6.0745496750 76.731033325 0.0249887407
 11165.750000 262.20944214 5.1847052574 0.0101349996 2.6111850739 0.0499937013 6.0730695724 76.194480896 0.0387858525
 11166.000000 252.66059875 5.3484401703 0.0096300002 2.5947599411 0.0509819016 6.0715899467 75.657928467 0.0525829606
 11166.250000 246.71505737 5.2585401535 0.0084600002 2.5878601074 0.0519414991 6.0751099586 75.121376038 0.0552105159
 11166.500000 240.76950073 5.1686401367 0.0072900001 2.5809600353 0.0529011004 6.0786299706 74.584823608 0.0578380711
 11166.750000 240.76950073 5.3353748322 0.0079399999 2.5822298527 0.0542574003 6.0720300674 74.584823608 0.0607119352
 11167.000000 240.76950073 5.5021100044 0.0085899998 2.5834999084 0.0556137003 6.0654301643 74.584823608 0.0635858029
 11167.250000 242.24060059 5.6110997200 0.0071049999 2.5813951492 0.0563671477 6.0513401031 74.584823608 0.0646015629
 11167.500000 243.71170044 5.7200899124 0.0056200000 2.5792901516 0.0571205989 6.0372500420 74.584823608 0.0656173229
 11167.750000 236.01036072 5.1328301430 0.0014650000 2.5798349380 0.0575242490 6.0237603188 62.457176208 0.0649106801
 11168.000000 228.30900574 4.5455698967 -0.002690000 2.5803799629 0.0579278991 6.0102701187 50.329528809 0.0642040297
 11168.250000 235.26469421 4.4935851097 -0.001185000 2.5791001320 0.0579692982 6.0208950043 48.187118530 0.0628820583
 11168.500000 242.22039795 4.4415998459 0.0003200000 2.5778200626 0.0580107011 6.0315203667 46.044708252 0.0615600906
 11168.750000 242.22039795 4.3598952293 0.0003650000 2.5832848549 0.0577459000 6.0323300362 46.044708252 0.0595850423
 11169.000000 242.22039795 4.2781901360 0.0004100000 2.5887498856 0.0574810989 6.0331397057 46.044708252 0.0576099902
 11169.250000 239.35000610 4.8392548561 0.0068449997 2.5902297497 0.0571229495 6.0477147102 46.044708252 0.0514910817
 11169.500000 236.47959900 5.4003200531 0.0132799996 2.5917098522 0.0567648001 6.0622897148 46.044708252 0.0453721695
 11169.750000 231.73928833 5.2049050331 0.0104499999 2.5915548801 0.0565310009 6.0694451332 55.938613892 0.0397612825
