# LAS format log file from PETREL
# Project units are specified as depth units
#==================================================================
~Version information
VERS.   2.0:
WRAP.   NO:
#==================================================================
~Well
STRT .ft      8654.0000000 :
STOP .ft      12882.500000 :
STEP .ft     0.25000000 :
NULL .        -999.250000 :
COMP.           : COMPANY
WELL.  GS324-4A(EDFU-A3A)   : WELL
FLD.            : FIELD
LOC.            : LOCATION
SRVC.           : SERVICE COMPANY
DATE.  2024-07-08 09:12:30   : Log Export Date {yyyy-MM-dd HH:mm:ss}
PROV.           : PROVINCE
UWI.   EGYPT2110901   : UNIQUE WELL ID
API.            : API NUMBER
#==================================================================
~Curve
DEPT .ft                   : DEPTH
RD .ohm.m                 : RD
PEF .b/e                  : PEF
DRHO .g/cm3               : DRHO
RHOB .g/cm3               : RHOB
NPHI .ft3/ft3             : NPHI
CALI .in                  : CALI
GR .gAPI                  : GR
PHI_FINAL .ft3/ft3        : PHI_FINAL
~Parameter
#==================================================================
~Ascii
# ...
 10660.000000 5.2401700020 4.1401300430 0.0101000005 2.6483898163 0.1882243007 6.2041101456 56.638801575 0.0000000000
 10660.250000 5.2565298080 4.1720147133 0.0100750010 2.6378250122 0.1900961399 6.2026000023 55.717906952 0.0000000000
 10660.500000 5.2728900909 4.2038998604 0.0100500006 2.6272599697 0.1919679940 6.2010898590 54.797008514 0.0000000000
 10660.750000 5.2553701401 4.1257495880 0.0025200001 2.6179900169 0.1945520043 6.1938199997 53.891334534 0.0000000000
 10661.000000 5.2378501892 4.0475997925 -0.005010000 2.6087200642 0.1971359998 6.1865501404 52.985660553 0.0000000000
 10661.250000 5.2530250549 4.0166249275 -0.000060000 2.6109201908 0.1997075975 6.2096352577 54.812232971 0.0000000000
 10661.500000 5.2681999207 3.9856500626 0.0048900000 2.6131200790 0.2022791952 6.2327198982 56.638801575 0.0000000000
 10661.750000 5.3961896896 3.9394049644 0.0007700000 2.6109151840 0.2025618553 6.2341852188 56.638801575 0.0000000000
 10662.000000 5.5241799355 3.8931601048 -0.003350000 2.6087100506 0.2028445005 6.2356500626 56.638801575 0.0000000000
 10662.250000 5.5913949013 4.0147199631 0.0007350002 2.5976300240 0.2049260437 6.2419447899 56.638801575 0.0000000000
 10662.500000 5.6586098671 4.1362800598 0.0048200004 2.5865499973 0.2070076019 6.2482399940 56.638801575 0.0000000000
 10662.750000 5.6651949883 3.9661450386 0.0174749997 2.5796201229 0.2116907537 6.3166747093 55.717906952 0.0000000000
 10663.000000 5.6717801094 3.7960100174 0.0301299989 2.5726900101 0.2163739055 6.3851099014 54.797008514 0.0000000000
 10663.250000 5.5665950775 3.6853649616 0.0492349975 2.5711100101 0.2222732008 6.4916796684 56.654018402 0.0000000000
 10663.500000 5.4614100456 3.5747199059 0.0683399960 2.5695300102 0.2281724960 6.5982499123 58.511028290 0.0000000000
 10663.750000 5.5340547562 3.4724299908 0.0660850033 2.5235300064 0.2338156998 6.7211151123 59.462364197 0.0000000000
 10664.000000 5.6066999435 3.3701400757 0.0638300031 2.4775300026 0.2394589037 6.8439803123 60.413700104 0.0000000000
 10664.250000 5.6418800354 3.3698801994 0.0515150018 2.4709699154 0.2437766492 6.8691396713 60.413700104 0.0000000000
 10664.500000 5.6770601273 3.3696200848 0.0392000005 2.4644098282 0.2480943948 6.8942995071 60.413700104 0.0000000000
 10664.750000 5.6850347519 3.4674100876 0.0296050012 2.4578199387 0.2543755472 6.8868198395 60.413700104 0.0000000000
 10665.000000 5.6930098534 3.5652000904 0.0200100001 2.4512300491 0.2606567144 6.8793396950 60.413700104 0.0000000000
 10665.250000 5.6850347519 3.7289450169 0.0313649997 2.4557549953 0.2646368742 6.8703045845 60.413700104 0.0000000000
 10665.500000 5.6770601273 3.8926899433 0.0427200012 2.4602799416 0.2686170042 6.8612699509 60.413700104 0.0000000000
 10665.750000 5.7501153946 3.8482451439 0.0609550029 2.4683849812 0.2719175518 6.8759450912 58.526252747 0.0000000000
 10666.000000 5.8231701851 3.8038001060 0.0791900009 2.4764900208 0.2752180994 6.8906202316 56.638801575 0.0000000000
 10666.250000 5.9954447746 3.6797251701 0.0677300021 2.4668700695 0.2754229009 6.8724951744 56.638801575 0.0000000000
 10666.500000 6.1677198410 3.5556499958 0.0562699996 2.4572501183 0.2756277025 6.8543701172 56.638801575 0.0000000000
 10666.750000 6.2075896263 3.5170199871 0.0536849983 2.4474101067 0.2789154947 6.8934798241 58.526248932 0.0000000000
 10667.000000 6.2474598885 3.4783899784 0.0510999970 2.4375700951 0.2822032869 6.9325900078 60.413700104 0.0000000000
 10667.250000 6.1834750175 3.5887398720 0.0463999994 2.4018750191 0.2807717919 7.0033197403 60.413700104 0.0000000000
 10667.500000 6.1194901466 3.6990900040 0.0417000018 2.3661799431 0.2793402970 7.0740499496 60.413700104 0.0000000000
 10667.750000 6.0345802307 3.8146450520 0.0684200004 2.3621251583 0.2804100811 7.1889796257 60.413700104 0.0000000000
 10668.000000 5.9496698380 3.9302000999 0.0951400027 2.3580701351 0.2814798951 7.3039097786 60.413700104 0.0000000000
 10668.250000 5.9439601898 4.0027351379 0.0962049961 2.3587200642 0.2836287916 7.3081893921 57.605354309 0.0000000000
 10668.500000 5.9382500648 4.0752701759 0.0972699970 2.3593702316 0.2857776880 7.3124694824 54.797008514 0.0000000000
 10668.750000 6.1494598389 4.2346649170 0.0960499942 2.3524801731 0.2864498496 7.2284498215 55.717903137 0.0000000000
 10669.000000 6.3606700897 4.3940601349 0.0948299989 2.3455901146 0.2871220112 7.1444296837 56.638801575 0.0000000000
 10669.250000 6.3718700409 4.4123001099 0.1064750031 2.3370599747 0.2855804861 7.1122298241 57.574916840 0.0000000000
 10669.500000 6.3830699921 4.4305400848 0.1181199998 2.3285300732 0.2840389907 7.0800299644 58.511028290 0.0000000000
 10669.750000 6.3276901245 4.5911903381 0.1316899955 2.3386301994 0.2816004157 7.0768003464 58.511028290 0.0000000000
 10670.000000 6.2723097801 4.7518401146 0.1452599913 2.3487300873 0.2791618109 7.0735702515 58.511028290 0.0000000000
 10670.250000 6.1354799271 4.5962300301 0.1458050013 2.3833348751 0.2805809379 7.0482754707 58.511028290 0.0000000000
 10670.500000 5.9986500740 4.4406199455 0.1463500112 2.4179399014 0.2820000947 7.0229802132 58.511028290 0.0000000000
 10670.750000 6.3617000580 4.2988052368 0.1384550035 2.4323999882 0.2811793983 6.9752702713 58.511028290 0.0000000000
 10671.000000 6.7247500420 4.1569900513 0.1305599958 2.4468600750 0.2803587019 6.9275598526 58.511028290 0.0000000000
 10671.250000 6.7247500420 4.0535402298 0.1307949871 2.4708499908 0.2760767639 6.8991498947 55.748344421 0.0000000000
 10671.500000 6.7247500420 3.9500899315 0.1310299933 2.4948401451 0.2717947960 6.8707399368 52.985660553 0.0000000000
 10671.750000 6.9109797478 3.8477699757 0.1117599979 2.4829652309 0.2688606679 6.8300800323 52.985660553 0.0000000000
 10672.000000 7.0972099304 3.7454500198 0.0924899951 2.4710900784 0.2659265101 6.7894201279 52.985660553 0.0000000000
 10672.250000 6.8656902313 4.1454548836 0.1212799996 2.4725198746 0.2693716586 6.8759946823 52.985660553 0.0000000000
 10672.500000 6.6341700554 4.5454602242 0.1500700116 2.4739499092 0.2728168070 6.9625697136 52.985660553 0.0000000000
 10672.750000 6.5006151199 4.4316902161 0.1376950145 2.4429001808 0.2762485743 6.9895949364 53.891334534 0.0000000000
 10673.000000 6.3670601845 4.3179202080 0.1253200024 2.4118502140 0.2796803117 7.0166201591 54.797008514 0.0000000000
 10673.250000 5.7409400940 4.3309350014 0.1261600107 2.4108750820 0.2835064530 7.0468902588 54.797008514 0.0000000000
 10673.500000 5.1148200035 4.3439497948 0.1270000041 2.4098999500 0.2873325944 7.0771598816 54.797008514 0.0000000000
 10673.750000 5.0707597733 3.9254949093 0.1166350022 2.3989348412 0.2908812463 7.0552000999 55.027236938 0.0000000000
 10674.000000 5.0267000198 3.5070400238 0.1062700003 2.3879699707 0.2944298983 7.0332403183 55.257461548 0.0000000000
 10674.250000 5.0267000198 3.7212200165 0.1079349965 2.3905899525 0.2983007431 7.0722250938 55.487678528 0.0000000000
 10674.500000 5.0267000198 3.9354000092 0.1096000001 2.3932099342 0.3021715879 7.1112103462 55.717899323 0.0000000000
 10674.750000 4.6042699814 3.9285700321 0.1291899979 2.3851900101 0.3092138767 7.1810951233 55.948123932 0.0000000000
 10675.000000 4.1818399429 3.9217400551 0.1487800032 2.3771698475 0.3162561953 7.2509799004 56.178348541 0.0000000000
 10675.250000 4.1039052010 4.1026496887 0.1525100023 2.3768849373 0.3172685802 7.3016247749 56.408573151 0.0000000000
 10675.500000 4.0259699821 4.2835597992 0.1562400013 2.3766000271 0.3182809949 7.3522701263 56.638801575 0.0000000000
 10675.750000 4.0339450836 4.1803002357 0.1459950060 2.3375902176 0.3225685358 7.3429951668 56.638801575 0.0000000000
 10676.000000 4.0419201851 4.0770401955 0.1357499957 2.2985801697 0.3268561065 7.3337197304 56.638801575 0.0000000000
 10676.250000 4.0355353355 4.1054048538 0.1262149960 2.2838900089 0.3298199475 7.3393044472 56.638801575 0.0000000000
 10676.500000 4.0291500092 4.1337699890 0.1166800037 2.2691998482 0.3327837884 7.3448896408 56.638801575 0.0000000000
 10676.750000 4.0291500092 4.1910099983 0.1097050011 2.2208299637 0.3325088620 7.4646997452 57.106857300 0.0000000000
