# LAS format log file from PETREL
# Project units are specified as depth units
#==================================================================
~Version information
VERS.   2.0:
WRAP.   NO:
#==================================================================
~Well
STRT .ft      8654.0000000 :
STOP .ft      12882.500000 :
STEP .ft     0.25000000 :
NULL .        -999.250000 :
COMP.           : COMPANY
WELL.  GS324-4A(EDFU-A3A)   : WELL
FLD.            : FIELD
LOC.            : LOCATION
SRVC.           : SERVICE COMPANY
DATE.  2024-07-08 09:12:30   : Log Export Date {yyyy-MM-dd HH:mm:ss}
PROV.           : PROVINCE
UWI.   EGYPT2110901   : UNIQUE WELL ID
API.            : API NUMBER
#==================================================================
~Curve
DEPT .ft                   : DEPTH
RD .ohm.m                 : RD
PEF .b/e                  : PEF
DRHO .g/cm3               : DRHO
RHOB .g/cm3               : RHOB
NPHI .ft3/ft3             : NPHI
CALI .in                  : CALI
GR .gAPI                  : GR
PHI_FINAL .ft3/ft3        : PHI_FINAL
~Parameter
#==================================================================
~Ascii
# ...
 11493.000000 32.493270874 4.3668599129 0.0011500000 2.6513199806 0.1000986025 6.0890297890 50.329528809 0.0221206695
 11493.250000 32.556221008 4.2337799072 0.0003550000 2.6480300426 0.0996659547 6.0743951797 50.767143250 0.0221486334
 11493.500000 32.619171143 4.1006999016 -0.000440000 2.6447401047 0.0992332995 6.0597600937 51.204761505 0.0221765991
 11493.750000 32.962249756 3.9620249271 0.0007750000 2.6514201164 0.0980694517 6.0668349266 50.767147064 0.0201215353
 11494.000000 33.305328369 3.8233499527 0.0019900000 2.6581001282 0.0969055966 6.0739097595 50.329528809 0.0180664696
 11494.250000 33.984878540 4.1743750572 0.0061599999 2.6635701656 0.0963150933 6.0641498566 49.891914368 0.0194856245
 11494.500000 34.664428711 4.5254001617 0.0103300000 2.6690399647 0.0957245976 6.0543899536 49.454299927 0.0209047794
 11494.750000 35.194107056 4.5475702286 0.0120099997 2.6671199799 0.0945452452 6.0515451431 49.454299927 0.0204056650
 11495.000000 35.723781586 4.5697398186 0.0136899995 2.6651999950 0.0933659002 6.0486998558 49.454299927 0.0199065506
 11495.250000 35.699260712 4.7402749062 0.0086899996 2.6552400589 0.0930310488 6.0444450378 49.454299927 0.0228224099
 11495.500000 35.674739838 4.9108099937 0.0036900002 2.6452801228 0.0926961973 6.0401897430 49.454299927 0.0257382691
 11495.750000 35.287212372 4.5273299217 -0.006934999 2.6392300129 0.0916590989 6.0385999680 48.601902008 0.0322440825
 11496.000000 34.899681091 4.1438498497 -0.017560000 2.6331799030 0.0906220004 6.0370101929 47.749500275 0.0387498997
 11496.250000 34.618858337 4.2833099365 -0.019590000 2.6363298893 0.0906009525 6.0469298363 46.897106171 0.0428307801
 11496.500000 34.338031769 4.4227700233 -0.021620002 2.6394798756 0.0905798972 6.0568499565 46.044708252 0.0469116606
 11496.750000 33.887451172 4.6935200691 -0.011000001 2.6440198421 0.0902566016 6.0557298660 46.044708252 0.0447507761
 11497.000000 33.436870575 4.9642701149 -0.000380000 2.6485600471 0.0899332985 6.0546097755 46.044708252 0.0425898917
 11497.250000 33.525310516 5.9431347847 0.0013950000 2.6418600082 0.0906907991 6.0535998344 47.779949188 0.0426391140
 11497.500000 33.613750458 6.9219999313 0.0031700002 2.6351599693 0.0914482996 6.0525898933 49.515190125 0.0426883399
 11497.750000 33.525344849 7.2152500153 0.0050700000 2.6376349926 0.0926561505 6.0676946640 51.250423431 0.0360086337
 11498.000000 33.436939240 7.5085000992 0.0069700000 2.6401100159 0.0938640013 6.0827999115 52.985660553 0.0293289293
 11498.250000 34.003475189 6.7417149544 0.0047550001 2.6402800083 0.0955075547 6.0475001335 52.985660553 0.0350271612
 11498.500000 34.570011139 5.9749298096 0.0025400000 2.6404500008 0.0971511006 6.0122003555 52.985660553 0.0407253914
 11498.750000 34.999732971 5.5019397736 0.0084000006 2.6537299156 0.0987707004 6.0554051399 52.985660553 0.0273953956
 11499.000000 35.429458618 5.0289502144 0.0142600005 2.6670100689 0.1003903002 6.0986099243 52.985660553 0.0140653998
 11499.250000 35.626407623 5.0380649567 0.0132650007 2.6613950729 0.1006922945 6.0815854073 52.985660553 0.0163937900
 11499.500000 35.823360443 5.0471801758 0.0122700008 2.6557800770 0.1009942964 6.0645604134 52.985660553 0.0187221803
 11499.750000 35.337856293 4.8684053421 0.0118600009 2.6503701210 0.1022406965 6.0785298347 52.985660553 0.0180252362
 11500.000000 34.852348328 4.6896300316 0.0114500001 2.6449599266 0.1034870967 6.0924997330 52.985660553 0.0173282903
 11500.250000 34.805027008 4.7024898529 0.0066100000 2.6344199181 0.1016472504 6.0791597366 52.095211029 0.0271383394
 11500.500000 34.757701874 4.7153501511 0.0017700000 2.6238799095 0.0998073965 6.0658197403 51.204761505 0.0369483903
 11500.750000 33.815517426 4.5296101570 -0.000655000 2.6300699711 0.1000256985 6.0629749298 50.767147064 0.0341679901
 11501.000000 32.873329163 4.3438701630 -0.003080000 2.6362600327 0.1002440006 6.0601296425 50.329528809 0.0313875899
 11501.250000 32.683380127 4.3078904152 -0.001535000 2.6375749111 0.0993463993 6.0578451157 49.891914368 0.0312065762
 11501.500000 32.493431091 4.2719101906 0.0000100000 2.6388897896 0.0984487981 6.0555601120 49.454299927 0.0310255606
 11501.750000 32.683475494 4.2352004051 0.0016500000 2.6401197910 0.1001904458 6.0777649879 52.125652313 0.0197322778
 11502.000000 32.873519897 4.1984901428 0.0032899999 2.6413500309 0.1019321010 6.0999698639 54.797008514 0.0084389932
 11502.250000 33.513935089 4.5849204063 0.0112399999 2.6431350708 0.1014962494 6.1282348633 54.797008514 0.0057114642
 11502.500000 34.154350281 4.9713501930 0.0191900004 2.6449198723 0.1010603979 6.1564998627 54.797008514 0.0029839349
 11502.750000 34.385704041 5.1639852524 0.0202500001 2.6454899311 0.0991029441 6.1716403961 54.797008514 0.0015240675
 11503.000000 34.617061615 5.3566198349 0.0213099997 2.6460599899 0.0971454978 6.1867804527 54.797008514 0.0000642000
 11503.250000 34.408710480 5.2286248207 0.0137099996 2.6445400715 0.0963919982 6.1234202385 53.461334229 0.0146304453
 11503.500000 34.200359344 5.1006298065 0.0061100000 2.6430199146 0.0956384987 6.0600600243 52.125659943 0.0291966908
 11503.750000 34.109088898 4.8044948578 0.0025549999 2.6422100067 0.0948647484 6.0449748039 50.789981842 0.0339750536
 11504.000000 34.017818451 4.5083599091 -0.001000000 2.6413998604 0.0940909982 6.0298895836 49.454299927 0.0387534201
 11504.250000 34.699176788 4.5252599716 -0.004120000 2.6405799389 0.0943029448 6.0225648880 49.024295807 0.0393559001
 11504.500000 35.380538940 4.5421600342 -0.007240000 2.6397600174 0.0945148990 6.0152397156 48.594291687 0.0399583802
 11504.750000 35.259716034 4.8437347412 0.0010700000 2.6439249516 0.0935788527 6.0419797897 48.164287567 0.0358339250
 11505.000000 35.138889313 5.1453099251 0.0093799997 2.6480901241 0.0926427990 6.0687203407 47.734279633 0.0317094699
 11505.250000 35.308525085 5.0167751312 0.0106750000 2.6514799595 0.0927210003 6.0839753151 48.594287872 0.0264533348
 11505.500000 35.478160858 4.8882398605 0.0119700003 2.6548700333 0.0927992016 6.0992302895 49.454299927 0.0211971998
 11505.750000 35.813533783 4.7267298698 0.0029250002 2.6503250599 0.0940550491 6.0660104752 49.454299927 0.0261907149
 11506.000000 36.148910522 4.5652198792 -0.006120000 2.6457800865 0.0953108966 6.0327901840 49.454299927 0.0311842300
 11506.250000 36.654464722 4.7091798782 -0.004315000 2.6430048943 0.0956047028 6.0372900963 49.454299927 0.0325767994
 11506.500000 37.160018921 4.8531398773 -0.002510000 2.6402299404 0.0958985016 6.0417900085 49.454299927 0.0339693688
 11506.750000 37.133575439 5.2683048248 0.0000950000 2.6275100708 0.0962699503 6.0451297760 49.454299927 0.0383425243
 11507.000000 37.107128143 5.6834697723 0.0027000001 2.6147899628 0.0966413990 6.0484700203 49.454299927 0.0427156799
 11507.250000 37.080570221 5.5438899994 0.0052850000 2.6182000637 0.0969019979 6.0657696724 49.454299927 0.0379252099
 11507.500000 37.054008484 5.4043102264 0.0078699999 2.6216101646 0.0971625969 6.0830698013 49.454299927 0.0331347398
 11507.750000 36.896591187 5.3629503250 0.0088099996 2.6249899864 0.0980931967 6.0796599388 49.454299927 0.0321322121
 11508.000000 36.739170074 5.3215899467 0.0097500002 2.6283700466 0.0990237966 6.0762500763 49.454299927 0.0311296806
 11508.250000 37.328063965 4.9608902931 0.0085450001 2.6396200657 0.1000046432 6.0889101028 49.454299927 0.0277432650
 11508.500000 37.916961670 4.6001901627 0.0073400000 2.6508700848 0.1009854972 6.1015701294 49.454299927 0.0243568495
 11508.750000 37.432876587 4.6586651802 0.0020050001 2.6453950405 0.1010135934 6.1044249535 49.891914368 0.0262629334
 11509.000000 36.948791504 4.7171401978 -0.003330000 2.6399199963 0.1010416970 6.1072802544 50.329528809 0.0281690191
 11509.250000 37.739864349 4.6648302078 0.0022499997 2.6403899193 0.1011216491 6.1117048264 50.767143250 0.0265561305
 11509.500000 38.530941010 4.6125202179 0.0078299996 2.6408600807 0.1012016013 6.1161298752 51.204761505 0.0249432400
 11509.750000 38.141597748 4.5772399902 0.0046349997 2.6324050426 0.1021109968 6.0995001793 50.767147064 0.0293585844
