# LAS format log file from PETREL
# Project units are specified as depth units
#==================================================================
~Version information
VERS.   2.0:
WRAP.   NO:
#==================================================================
~Well
STRT .ft      8654.0000000 :
STOP .ft      12882.500000 :
STEP .ft     0.25000000 :
NULL .        -999.250000 :
COMP.           : COMPANY
WELL.  GS324-4A(EDFU-A3A)   : WELL
FLD.            : FIELD
LOC.            : LOCATION
SRVC.           : SERVICE COMPANY
DATE.  2024-07-08 09:12:30   : Log Export Date {yyyy-MM-dd HH:mm:ss}
PROV.           : PROVINCE
UWI.   EGYPT2110901   : UNIQUE WELL ID
API.            : API NUMBER
#==================================================================
~Curve
DEPT .ft                   : DEPTH
RD .ohm.m                 : RD
PEF .b/e                  : PEF
DRHO .g/cm3               : DRHO
RHOB .g/cm3               : RHOB
NPHI .ft3/ft3             : NPHI
CALI .in                  : CALI
GR .gAPI                  : GR
PHI_FINAL .ft3/ft3        : PHI_FINAL
~Parameter
#==================================================================
~Ascii
# ...
 12479.000000 38.873371124 7.7045497894 0.0347900018 2.6757199764 0.1413345039 6.2444300652 73.557373047 0.0000000000
 12479.250000 38.177040100 7.3478698730 0.0309050009 2.6853599548 0.1209862009 6.2042450905 71.970542908 0.0000000000
 12479.500000 37.480709076 6.9911899567 0.0270199999 2.6949999332 0.1006378978 6.1640601158 70.383712769 0.0000000000
 12479.750000 41.076202393 6.4468650818 0.0227549989 2.7044899464 0.0837787464 6.1367850304 57.997306824 0.0000000000
 12480.000000 44.671691895 5.9025402069 0.0184899997 2.7139799595 0.0669196025 6.1095099449 45.610900879 0.0000000000
 12480.250000 51.921943665 5.9580049515 0.0186249986 2.7186250687 0.0574778989 6.1089849472 33.224494934 0.0000000000
 12480.500000 59.172199249 6.0134701729 0.0187599994 2.7232699394 0.0480361991 6.1084599495 20.838090897 0.0000000000
 12480.750000 72.168319702 5.7424650192 0.0184199996 2.7331750393 0.0418698005 6.1077399254 20.560300827 0.0000000000
 12481.000000 85.164436340 5.4714598656 0.0180799998 2.7430801392 0.0357033983 6.1070199013 20.282510757 0.0000000000
 12481.250000 78.063919067 5.4549751282 0.0181899983 2.7516601086 0.0329110511 6.0997548103 20.004714966 0.0000000000
 12481.500000 70.963401794 5.4384899139 0.0182999987 2.7602400780 0.0301187001 6.0924897194 19.726919174 0.0000000000
 12481.750000 61.500522614 5.8621349335 0.0191299990 2.7494251728 0.0286849011 6.0781250000 19.186559677 0.0000000000
 12482.000000 52.037639618 6.2857799530 0.0199599992 2.7386100292 0.0272511002 6.0637598038 18.646200180 0.0000000000
 12482.250000 52.037639618 6.4092698097 0.0158549994 2.7326450348 0.0272927992 6.0286102295 18.646200180 0.0000000000
 12482.500000 52.037639618 6.5327601433 0.0117499996 2.7266800404 0.0273345001 5.9934601784 18.646200180 0.0000000000
 12482.750000 48.044944763 7.2577147484 0.0098099997 2.7219851017 0.0274180491 6.0046749115 18.646200180 0.0075758151
 12483.000000 44.052249908 7.9826698303 0.0078699999 2.7172899246 0.0275015999 6.0158896446 18.646200180 0.0151516302
 12483.250000 43.135234833 6.8957200050 0.0076000001 2.7282199860 0.0278123505 6.0111045837 18.121065140 0.0148235252
 12483.500000 42.218219757 5.8087701797 0.0073299999 2.7391498089 0.0281230994 6.0063199997 17.595930099 0.0144954203
 12483.750000 41.234344482 6.7229552269 0.0085199997 2.7368948460 0.0281288009 6.0057797432 18.121065140 0.0147709101
 12484.000000 40.250469208 7.6371397972 0.0097099999 2.7346398830 0.0281345006 6.0052399635 18.646200180 0.0150464000
 12484.250000 42.497993469 7.0303897858 0.0044149999 2.7340750694 0.0286371503 5.9717197418 18.646200180 0.0187563095
 12484.500000 44.745521545 6.4236397743 -0.000880000 2.7335100174 0.0291398000 5.9381999969 18.646200180 0.0224662200
 12484.750000 44.745521545 6.1442298889 -0.004305000 2.7329800129 0.0292031504 5.9402847290 18.646200180 0.0229226537
 12485.000000 44.745521545 5.8648200035 -0.007730000 2.7324500084 0.0292665008 5.9423699379 18.646200180 0.0233790893
 12485.250000 46.109233856 5.3331899643 -0.008610000 2.7209451199 0.0294039492 5.9687500000 18.646200180 0.0218291506
 12485.500000 47.472949982 4.8015599251 -0.009490000 2.7094399929 0.0295413993 5.9951300621 18.646200180 0.0202792101
 12485.750000 49.990798950 4.7712202072 -0.006620000 2.7076900005 0.0296342485 6.0149049759 18.646200180 0.0178705249
 12486.000000 52.508651733 4.7408800125 -0.003750000 2.7059400082 0.0297270995 6.0346798897 18.646200180 0.0154618397
 12486.250000 54.239536285 4.9454150200 0.0005200001 2.7033901215 0.0307861492 6.0442647934 19.186559677 0.0146698700
 12486.500000 55.970420837 5.1499500275 0.0047900002 2.7008399963 0.0318452008 6.0538501740 19.726919174 0.0138779003
 12486.750000 55.894599915 5.5097846985 0.0081000002 2.7133550644 0.0346684493 6.0450701714 21.439329147 0.0098680984
 12487.000000 55.818778992 5.8696198463 0.0114099998 2.7258701324 0.0374917015 6.0362901688 23.151739120 0.0058582970
 12487.250000 53.413177490 5.9824199677 0.0084450003 2.7324452400 0.0402961001 6.0239105225 22.295534134 0.0131060584
 12487.500000 51.007579803 6.0952200890 0.0054799998 2.7390201092 0.0431004986 6.0115303993 21.439329147 0.0203538202
 12487.750000 51.853481293 6.0295000076 0.0042800000 2.7393550873 0.0477261990 5.9932751656 20.583124161 0.0266156849
 12488.000000 52.699378967 5.9637799263 0.0030799999 2.7396898270 0.0523518994 5.9750199318 19.726919174 0.0328775495
 12488.250000 34.872024536 5.4207897186 0.0050049997 2.7308299541 0.0570864491 5.9983453751 19.726919174 0.0164387748
 12488.500000 17.044670105 4.8777999878 0.0069299997 2.7219700813 0.0618209988 6.0216703415 19.726919174 0.0000000000
 12488.750000 13.076960564 4.5689249039 0.0083799995 2.7125301361 0.0707095489 6.0450601578 46.097980499 0.0000000000
 12489.000000 9.1092500687 4.2600498199 0.0098299999 2.7030901909 0.0795980990 6.0684499741 72.469039917 0.0000000000
 12489.250000 7.6737103462 4.3474097252 0.0170399994 2.6979751587 0.0916042477 6.1014199257 75.756866455 0.0000000000
 12489.500000 6.2381701469 4.4347701073 0.0242500007 2.6928601265 0.1036103964 6.1343898773 79.044692993 0.0000000000
 12489.750000 5.2399501801 4.5280399323 0.0225450005 2.7007648945 0.1141273975 6.1509747505 82.332504272 0.0000000000
 12490.000000 4.2417302132 4.6213102341 0.0208400004 2.7086699009 0.1246443987 6.1675601006 85.620323181 0.0000000000
 12490.250000 9.1412754059 4.7997899055 0.0223549996 2.7133598328 0.1265659481 6.1761050224 84.486335754 0.0000000000
 12490.500000 14.040820122 4.9782700539 0.0238700006 2.7180500031 0.1284874976 6.1846499443 83.352340698 0.0000000000
 12490.750000 15.132394791 5.0294198990 0.0181900002 2.7282600403 0.1205023006 6.1547303200 83.352340698 0.0000000000
 12491.000000 16.223970413 5.0805702209 0.0125099998 2.7384700775 0.1125171036 6.1248102188 83.352340698 0.0000000000
 12491.250000 15.815770149 5.4255504608 0.0149599994 2.7426350117 0.1030746549 6.1207599640 83.352340698 0.0000000000
 12491.500000 15.407569885 5.7705302238 0.0174099989 2.7467999458 0.0936321989 6.1167101860 83.352340698 0.0000000000
 12491.750000 15.407569885 6.1184902191 0.0176499989 2.7459747791 0.0845399946 6.0858650208 83.352340698 0.0000000000
 12492.000000 15.407569885 6.4664502144 0.0178899989 2.7451498508 0.0754477978 6.0550198555 83.352340698 0.0000000000
 12492.250000 19.267715454 5.9099450111 0.0132799996 2.7424550056 0.0698414445 6.0405998230 57.087829590 0.0000000000
 12492.500000 23.127859116 5.3534398079 0.0086700004 2.7397599220 0.0642350987 6.0261797905 30.823320389 0.0000000000
 12492.750000 24.547424316 5.5057296753 0.0054550003 2.7323548794 0.0604624487 6.0218501091 31.515893936 0.0000000000
 12493.000000 25.966989517 5.6580200195 0.0022400001 2.7249498367 0.0566897988 6.0175199509 32.208469391 0.0000000000
 12493.250000 26.368595123 5.7202148438 0.0046350001 2.7248098850 0.0560551509 6.0301346779 30.244909286 0.0010228595
 12493.500000 26.770200729 5.7824101448 0.0070300000 2.7246699333 0.0554204993 6.0427498817 28.281349182 0.0020457190
 12493.750000 28.661819458 6.0450100899 0.0065150000 2.7163400650 0.0550397523 6.0280652046 26.317790985 0.0096557997
 12494.000000 30.553440094 6.3076100349 0.0060000001 2.7080099583 0.0546590015 6.0133800507 24.354230881 0.0172658805
 12494.250000 28.253049850 6.3437447548 0.0011950001 2.7049400806 0.0560968481 6.0071749687 24.354230881 0.0208038390
 12494.500000 25.952659607 6.3798799515 -0.003610000 2.7018702030 0.0575346984 6.0009698868 24.354230881 0.0243417993
 12494.750000 24.637315750 6.3375201225 -0.002040000 2.6988000870 0.0598909967 6.0164351463 27.588775635 0.0162962470
 12495.000000 23.321969986 6.2951598167 -0.000470000 2.6957299709 0.0622472987 6.0319004059 30.823320389 0.0082506947
 12495.250000 23.711984634 7.3500900269 0.0054649995 2.7177901268 0.0674214959 6.1118903160 33.015201569 0.0041253474
 12495.500000 24.101999283 8.4050197601 0.0113999993 2.7398500443 0.0725957006 6.1918802261 35.207080841 0.0000000000
 12495.750000 24.823945999 7.8500599861 0.0161550008 2.7519450188 0.0797059536 6.1953153610 37.398960114 0.0000000000
