# LAS format log file from PETREL
# Project units are specified as depth units
#==================================================================
~Version information
VERS.   2.0:
WRAP.   NO:
#==================================================================
~Well
STRT .ft      8654.0000000 :
STOP .ft      12882.500000 :
STEP .ft     0.25000000 :
NULL .        -999.250000 :
COMP.           : COMPANY
WELL.  GS324-4A(EDFU-A3A)   : WELL
FLD.            : FIELD
LOC.            : LOCATION
SRVC.           : SERVICE COMPANY
DATE.  2024-07-08 09:12:30   : Log Export Date {yyyy-MM-dd HH:mm:ss}
PROV.           : PROVINCE
UWI.   EGYPT2110901   : UNIQUE WELL ID
API.            : API NUMBER
#==================================================================
~Curve
DEPT .ft                   : DEPTH
RD .ohm.m                 : RD
PEF .b/e                  : PEF
DRHO .g/cm3               : DRHO
RHOB .g/cm3               : RHOB
NPHI .ft3/ft3             : NPHI
CALI .in                  : CALI
GR .gAPI                  : GR
PHI_FINAL .ft3/ft3        : PHI_FINAL
~Parameter
#==================================================================
~Ascii
# ...
 12309.000000 8.1562700272 4.7417898178 0.0225000009 2.6799399853 0.1335358024 6.0817699432 22.657039642 0.0468862988
 12309.250000 7.9145503044 4.8483495712 0.0326999985 2.6751799583 0.1361087412 6.2111048698 24.122098923 0.0253718533
 12309.500000 7.6728301048 4.9549098015 0.0428999998 2.6704199314 0.1386816949 6.3404397964 25.587160110 0.0038574080
 12309.750000 5.9239549637 5.2943496704 0.0358950011 2.6873550415 0.1433481872 6.3134250641 27.527885437 0.0019287040
 12310.000000 4.1750798225 5.6337900162 0.0288899988 2.7042901516 0.1480146945 6.2864098549 29.468610764 0.0000000000
 12310.250000 4.1750798225 5.2336049080 0.0329749994 2.7086951733 0.1533911377 6.2706952095 29.468610764 0.0000000000
 12310.500000 4.1750798225 4.8334197998 0.0370600000 2.7131001949 0.1587675959 6.2549800873 29.468610764 0.0000000000
 12310.750000 4.4896898270 5.0139799118 0.0346649997 2.7252800465 0.1619981974 6.2195601463 30.153573990 0.0000000000
 12311.000000 4.8042998314 5.1945400238 0.0322699994 2.7374598980 0.1652287990 6.1841397285 30.838539124 0.0000000000
 12311.250000 4.8042998314 5.1235899925 0.0364500023 2.7455949783 0.1648526490 6.1812796593 31.523504257 0.0000000000
 12311.500000 4.8042998314 5.0526399612 0.0406300016 2.7537300587 0.1644764990 6.1784195900 32.208469391 0.0000000000
 12311.750000 5.0609650612 4.8557000160 0.0395400003 2.7358198166 0.1632310897 6.1512246132 32.444400787 0.0000000000
 12312.000000 5.3176298141 4.6587600708 0.0384499989 2.7179098129 0.1619856954 6.1240301132 32.680328369 0.0000000000
 12312.250000 5.6436996460 5.1422452927 0.0353699997 2.7128648758 0.1625454426 6.1306247711 32.916259766 0.0000000000
 12312.500000 5.9697699547 5.6257300377 0.0322900005 2.7078201771 0.1631052047 6.1372199059 33.152191162 0.0000000000
 12312.750000 5.9697699547 5.0544552803 0.0181649998 2.6987750530 0.1671798527 6.1116800308 33.388118744 0.0000000000
 12313.000000 5.9697699547 4.4831800461 0.0040400000 2.6897299290 0.1712545007 6.0861401558 33.624050140 0.0000000000
 12313.250000 6.9259548187 4.6014847755 0.0054000001 2.6763000488 0.1697017998 6.0722851753 39.004814148 0.0000000000
 12313.500000 7.8821401596 4.7197899818 0.0067600003 2.6628701687 0.1681490988 6.0584301949 44.385578156 0.0000000000
 12313.750000 6.9549503326 4.6188802719 0.0129349995 2.6630649567 0.1699651480 6.0610299110 44.385578156 0.0000000000
 12314.000000 6.0277600288 4.5179700851 0.0191099998 2.6632599831 0.1717811972 6.0636296272 44.385578156 0.0000000000
 12314.250000 7.2991847992 4.7056698799 0.0247399993 2.6512601376 0.1727297455 6.0438499451 45.652759552 0.0000000000
 12314.500000 8.5706100464 4.8933701515 0.0303700007 2.6392600536 0.1736782938 6.0240702629 46.919940948 0.0000000000
 12314.750000 10.015295029 4.7425251007 0.0282200016 2.6246349812 0.1821183860 6.0368051529 48.187118530 0.0000000000
 12315.000000 11.459980011 4.5916800499 0.0260700006 2.6100099087 0.1905584931 6.0495400429 49.454299927 0.0000000000
 12315.250000 11.318484306 4.3573451042 0.0234800000 2.6051249504 0.1993657053 6.0518350601 56.882339478 0.0000000000
 12315.500000 11.176989555 4.1230101585 0.0208899993 2.6002399921 0.2081729025 6.0541300774 64.310379028 0.0000000000
 12315.750000 8.2665700912 3.8758649826 0.0302700009 2.5922648907 0.2174160033 6.1660504341 66.878990173 0.0000000000
 12316.000000 5.3561501503 3.6287200451 0.0396500006 2.5842900276 0.2266591042 6.2779703140 69.447601318 0.0000000000
 12316.250000 5.8142399788 3.6620650291 0.0322249979 2.5764501095 0.2333630025 6.2541151047 72.016212463 0.0000000000
 12316.500000 6.2723298073 3.6954100132 0.0247999988 2.5686101913 0.2400669008 6.2302598953 74.584823608 0.0000000000
 12316.750000 5.6354298592 3.5159749985 0.0194600001 2.5470502377 0.2393151969 6.1814751625 74.584823608 0.0000000000
 12317.000000 4.9985299110 3.3365399837 0.0141199995 2.5254900455 0.2385634929 6.1326904297 74.584823608 0.0000000000
 12317.250000 5.1809496880 3.2753000259 0.0159399994 2.5039200783 0.2338824570 6.0759301186 71.228500366 0.0581206009
 12317.500000 5.3633699417 3.2140600681 0.0177600011 2.4823501110 0.2292014062 6.0191698074 67.872177124 0.1162412018
 12317.750000 7.7400398254 3.0665600300 0.0102250008 2.4816401005 0.2231761515 5.9951348305 64.515861511 0.1275820434
 12318.000000 10.116709709 2.9190599918 0.0026900000 2.4809298515 0.2171508968 5.9710998535 61.159549713 0.1389229000
 12318.250000 15.388463974 2.7912249565 -0.000140000 2.4766950607 0.2099118531 5.9295001030 56.966056824 0.1439123452
 12318.500000 20.660219193 2.6633899212 -0.002970000 2.4724600315 0.2026727945 5.8878998756 52.772560120 0.1489018053
 12318.750000 21.431209564 2.5954949856 0.0045300000 2.4451451302 0.2005759031 6.0537295341 48.579071045 0.1510949433
 12319.000000 22.202199936 2.5276000500 0.0120299999 2.4178299904 0.1984789968 6.2195596695 44.385578156 0.1532880962
 12319.250000 22.973190308 2.5192849636 0.0198100004 2.4128899574 0.1974456459 6.3024401665 40.466068268 0.0766440481
 12319.500000 23.744180679 2.5109701157 0.0275900010 2.4079499245 0.1964122951 6.3853201866 36.546558380 0.0000000000
 12319.750000 13.469500542 2.6811201572 0.0322550014 2.4163300991 0.1992272586 6.4437804222 36.546558380 0.0000000000
 12320.000000 3.1948199272 2.8512699604 0.0369199999 2.4247100353 0.2020422071 6.5022401810 36.546558380 0.0000000000
 12320.250000 2.4545950890 3.0932250023 0.0357199982 2.4343550205 0.2015811056 6.5191850662 29.849147797 0.0000000000
 12320.500000 1.7143700123 3.3351800442 0.0345200002 2.4440000057 0.2011200041 6.5361299515 23.151739120 0.0000000000
 12320.750000 1.6789600849 3.5300650597 0.0355149992 2.4636898041 0.1998546571 6.5258102417 24.399888992 0.0000000000
 12321.000000 1.6435500383 3.7249500751 0.0365099981 2.4833798409 0.1985892951 6.5154900551 25.648040771 0.0000000000
 12321.250000 1.4438550472 3.7961299419 0.0385949984 2.5344598293 0.2023697942 6.4861502647 26.896194458 0.0000000000
 12321.500000 1.2441600561 3.8673100471 0.0406799987 2.5855400562 0.2061502934 6.4568099976 28.144350052 0.0000000000
 12321.750000 1.2332800627 3.9417550564 0.0287549999 2.5856800079 0.2087701857 6.4162254333 30.884199142 0.0000000000
 12322.000000 1.2223999500 4.0162000656 0.0168299992 2.5858199596 0.2113900930 6.3756403923 33.624050140 0.0000000000
 12322.250000 1.3211998940 3.6530401707 0.0213500001 2.5772500038 0.2168685496 6.2930455208 33.624050140 0.0000000000
 12322.500000 1.4199999571 3.2898800373 0.0258700009 2.5686800480 0.2223470062 6.2104501724 33.624050140 0.0000000000
 12322.750000 1.5850698948 3.0919351578 0.0147750005 2.5302050114 0.2250999063 6.0894651413 35.176635742 0.0000000000
 12323.000000 1.7501399517 2.8939900398 0.0036800001 2.4917299747 0.2278528064 5.9684801102 36.729221344 0.0000000000
 12323.250000 1.6747499704 2.9201900959 0.0054100002 2.4754447937 0.2315852642 5.9608197212 38.281803131 0.0000000000
 12323.500000 1.5993599892 2.9463899136 0.0071399999 2.4591598511 0.2353177071 5.9531598091 39.834381104 0.0000000000
 12323.750000 1.5993599892 2.8577950001 0.0059099998 2.4542448521 0.2362636626 6.0005350113 39.712608337 0.0000000000
 12324.000000 1.5993599892 2.7692000866 0.0046799998 2.4493300915 0.2372096032 6.0479102135 39.590839386 0.0000000000
 12324.250000 1.3791350126 2.8119750023 0.0148499999 2.4255552292 0.2350755483 6.1861953735 39.206497192 0.0000000000
 12324.500000 1.1589100361 2.8547499180 0.0250199996 2.4017801285 0.2329414934 6.3244800568 38.822158813 0.0000000000
 12324.750000 1.6917049885 2.8634200096 0.0123899998 2.3931300640 0.2327296436 6.3076653481 38.437820435 0.0000000000
 12325.000000 2.2244999409 2.8720901012 -0.000240000 2.3844799995 0.2325177938 6.2908501625 38.053478241 0.0000000000
 12325.250000 2.5464999676 2.9805300236 -0.002390000 2.4075350761 0.2353834957 6.3340497017 38.053478241 0.0000000000
 12325.500000 2.8684999943 3.0889699459 -0.004540000 2.4305901527 0.2382491976 6.3772497177 38.053478241 0.0000000000
 12325.750000 3.1884899139 3.0326900482 0.0019749999 2.4672949314 0.2400745898 6.4144549370 40.051288605 0.0000000000
