# LAS format log file from PETREL
# Project units are specified as depth units
#==================================================================
~Version information
VERS.   2.0:
WRAP.   NO:
#==================================================================
~Well
STRT .ft      8654.0000000 :
STOP .ft      12882.500000 :
STEP .ft     0.25000000 :
NULL .        -999.250000 :
COMP.           : COMPANY
WELL.  GS324-4A(EDFU-A3A)   : WELL
FLD.            : FIELD
LOC.            : LOCATION
SRVC.           : SERVICE COMPANY
DATE.  2024-07-08 09:12:30   : Log Export Date {yyyy-MM-dd HH:mm:ss}
PROV.           : PROVINCE
UWI.   EGYPT2110901   : UNIQUE WELL ID
API.            : API NUMBER
#==================================================================
~Curve
DEPT .ft                   : DEPTH
RD .ohm.m                 : RD
PEF .b/e                  : PEF
DRHO .g/cm3               : DRHO
RHOB .g/cm3               : RHOB
NPHI .ft3/ft3             : NPHI
CALI .in                  : CALI
GR .gAPI                  : GR
PHI_FINAL .ft3/ft3        : PHI_FINAL
~Parameter
#==================================================================
~Ascii
# ...
 12139.000000 5.2518301010 2.4819400311 0.0026900000 2.5494899750 0.1929855049 6.2417297363 60.413700104 0.0654526427
 12139.250000 5.0185847282 2.5290200710 0.0050250003 2.5431449413 0.1934774518 6.2370400429 57.605354309 0.0748552829
 12139.500000 4.7853398323 2.5761001110 0.0073600002 2.5368001461 0.1939693987 6.2323503494 54.797008514 0.0842579231
 12139.750000 4.7853398323 2.5729050636 0.0065350002 2.5286550522 0.1931513995 6.2182102203 53.902755737 0.0886264741
 12140.000000 4.7853398323 2.5697100163 0.0057100002 2.5205099583 0.1923334002 6.2040696144 53.008499146 0.0929950327
 12140.250000 4.6085448265 2.6868798733 0.0086550005 2.5118050575 0.1914059967 6.2361545563 52.114238739 0.0926492065
 12140.500000 4.4317498207 2.8040499687 0.0116000008 2.5031001568 0.1904785931 6.2682399750 51.219978333 0.0923033804
 12140.750000 4.1698098183 2.8807749748 0.0158600006 2.4956002235 0.1908730417 6.3174896240 50.778560638 0.0461516902
 12141.000000 3.9078700542 2.9574999809 0.0201200005 2.4881000519 0.1912675053 6.3667397499 50.337139130 0.0000000000
 12141.250000 4.1010098457 3.0666048527 0.0183600001 2.4924750328 0.1929619461 6.4017748833 49.895721436 0.0000000000
 12141.500000 4.2941498756 3.1757099628 0.0165999997 2.4968500137 0.1946564019 6.4368100166 49.454299927 0.0000000000
 12141.750000 4.3564696312 3.6500298977 0.0064699999 2.4937751293 0.1938721091 6.4150547981 49.454299927 0.0000000000
 12142.000000 4.4187898636 4.1243500710 -0.003660000 2.4907000065 0.1930878013 6.3932995796 49.454299927 0.0000000000
 12142.250000 4.4187898636 4.7881550789 -0.007190000 2.5139999390 0.1935326904 6.3875398636 50.329528809 0.0000000000
 12142.500000 4.4187898636 5.4519600868 -0.010720001 2.5373001099 0.1939775944 6.3817801476 51.204761505 0.0000000000
 12142.750000 4.9019851685 4.7029752731 -0.009430001 2.5281400681 0.1937624514 6.3516798019 51.204761505 0.0000000000
 12143.000000 5.3851799965 3.9539899826 -0.008140001 2.5189800262 0.1935472935 6.3215799332 51.204761505 0.0000000000
 12143.250000 5.1896047592 3.7572300434 -0.001655000 2.5232901573 0.1939204037 6.3224902153 51.649986267 0.0000000000
 12143.500000 4.9940299988 3.5604701042 0.0048300000 2.5276000500 0.1942934990 6.3234000206 52.095211029 0.0000000000
 12143.750000 4.9940299988 3.2618050575 0.0031500000 2.5259351730 0.1922331452 6.3000001907 52.540435791 0.0000000000
 12144.000000 4.9940299988 2.9631400108 0.0014700000 2.5242700577 0.1901728064 6.2766003609 52.985660553 0.0000000000
 12144.250000 4.9995450974 2.7583601475 0.0022900000 2.5283548832 0.1876289546 6.2810301781 53.442302704 0.0337718762
 12144.500000 5.0050601959 2.5535800457 0.0031099999 2.5324399471 0.1850851029 6.2854599953 53.898948669 0.0675437525
 12144.750000 5.3976202011 2.4817750454 0.0015400000 2.5277650356 0.1840516031 6.2791600227 54.355587006 0.0694081038
 12145.000000 5.7901802063 2.4099700451 -0.000030000 2.5230901241 0.1830181032 6.2728600502 54.812229156 0.0712724626
 12145.250000 5.6270403862 2.3837800026 0.0010700000 2.5244700909 0.1829229593 6.2782449722 54.808425903 0.0706237182
 12145.500000 5.4639000893 2.3575899601 0.0021700000 2.5258500576 0.1828278005 6.2836303711 54.804618835 0.0699749663
 12145.750000 5.4639000893 2.4462099075 -0.001460000 2.5229201317 0.1825489104 6.2757501602 54.800815582 0.0700782984
 12146.000000 5.4639000893 2.5348300934 -0.005090000 2.5199899673 0.1822700053 6.2678699493 54.797008514 0.0701816306
 12146.250000 5.5131449699 2.6986899376 0.0054550003 2.5254099369 0.1828690022 6.2878746986 55.725513458 0.0350908153
 12146.500000 5.5623898506 2.8625500202 0.0160000008 2.5308301449 0.1834679991 6.3078799248 56.654018402 0.0000000000
 12146.750000 5.5268898010 2.7805449963 0.0182400011 2.5390000343 0.1831182986 6.3160352707 57.582523346 0.0000000000
 12147.000000 5.4913902283 2.6985399723 0.0204799995 2.5471699238 0.1827685982 6.3241901398 58.511028290 0.0000000000
 12147.250000 5.4913902283 2.6624698639 0.0212600008 2.5577750206 0.1803042442 6.3223447800 58.511028290 0.0000000000
 12147.500000 5.4913902283 2.6263999939 0.0220400002 2.5683798790 0.1778399050 6.3204998970 58.511028290 0.0000000000
 12147.750000 5.5749797821 2.5664048195 0.0171349999 2.5740549564 0.1762420535 6.3073253632 58.511028290 0.0000000000
 12148.000000 5.6585698128 2.5064098835 0.0122299995 2.5797300339 0.1746442020 6.2941503525 58.511028290 0.0000000000
 12148.250000 5.7715148926 2.5798099041 0.0130699994 2.5856750011 0.1743331552 6.2882852554 58.511028290 0.0000000000
 12148.500000 5.8844599724 2.6532099247 0.0139100002 2.5916202068 0.1740220934 6.2824196815 58.511028290 0.0000000000
 12148.750000 6.0690650940 2.6443250179 0.0120400004 2.5961449146 0.1744021475 6.2803001404 59.462364197 0.0000000000
 12149.000000 6.2536702156 2.6354401112 0.0101699997 2.6006698608 0.1747822016 6.2781801224 60.413700104 0.0000000000
 12149.250000 6.2536702156 2.7316150665 0.0085349996 2.5909850597 0.1756322980 6.2738051414 59.938030243 0.0000000000
 12149.500000 6.2536702156 2.8277900219 0.0068999999 2.5813000202 0.1764823943 6.2694301605 59.462360382 0.0000000000
 12149.750000 6.3770098686 2.6883800030 0.0085349996 2.5906648636 0.1776805967 6.2855148315 58.986694336 0.0000000000
 12150.000000 6.5003499985 2.5489699841 0.0101699997 2.6000299454 0.1788787991 6.3015999794 58.511028290 0.0000000000
 12150.250000 6.4130401611 2.6202950478 0.0134899998 2.5905849934 0.1805031002 6.2883849144 58.511028290 0.0000000000
 12150.500000 6.3257298470 2.6916201115 0.0168099999 2.5811398029 0.1821274012 6.2751698494 58.511028290 0.0000000000
 12150.750000 6.3257298470 2.6457850933 0.0162900016 2.5837848186 0.1816843003 6.2748899460 60.428924561 0.0000000000
 12151.000000 6.3257298470 2.5999500751 0.0157700013 2.5864298344 0.1812411994 6.2746105194 62.346820831 0.0000000000
 12151.250000 6.0869197845 2.5242600441 0.0078350008 2.5817997456 0.1803470999 6.2494502068 61.380260468 0.0227872897
 12151.500000 5.8481101990 2.4485700130 -0.000100000 2.5771698952 0.1794530004 6.2242898941 60.413700104 0.0455745794
 12151.750000 5.7599401474 2.4335598946 -0.001210000 2.5747449398 0.1780767441 6.2293300629 60.413700104 0.0457632691
 12152.000000 5.6717700958 2.4185500145 -0.002320000 2.5723199844 0.1767005026 6.2343702316 60.413700104 0.0459519587
 12152.250000 5.6717700958 2.4076700211 -0.000680000 2.5760600567 0.1751141995 6.2372550964 60.413700104 0.0450010598
 12152.500000 5.6717700958 2.3967900276 0.0009600000 2.5798001289 0.1735278964 6.2401399612 60.413700104 0.0440501608
 12152.750000 5.8792247772 2.4351449013 0.0072049997 2.5824050903 0.1717502475 6.2577748299 60.413700104 0.0411987454
 12153.000000 6.0866799355 2.4735000134 0.0134499995 2.5850100517 0.1699725986 6.2754096985 60.413700104 0.0383473299
 12153.250000 6.1256799698 2.4643650055 0.0267350003 2.5828599930 0.1675181985 6.3206548691 59.462364197 0.0326358490
 12153.500000 6.1646800041 2.4552299976 0.0400200002 2.5807099342 0.1650637984 6.3659000397 58.511028290 0.0269243699
 12153.750000 6.1646800041 2.5073099136 0.0366750024 2.5810098648 0.1660960466 6.3725748062 58.986694336 0.0246150512
 12154.000000 6.1646800041 2.5593900681 0.0333300009 2.5813100338 0.1671282947 6.3792500496 59.462360382 0.0223057307
 12154.250000 6.0543203354 2.5855300426 0.0293500014 2.5742750168 0.1666368544 6.3699302673 59.938030243 0.0241607204
 12154.500000 5.9439601898 2.6116700172 0.0253699999 2.5672399998 0.1661453992 6.3606100082 60.413700104 0.0260157101
 12154.750000 6.1715550423 2.5145149231 0.0163649991 2.5610351563 0.1679517925 6.3178048134 61.380260468 0.0301499944
 12155.000000 6.3991498947 2.4173600674 0.0073600002 2.5548300743 0.1697582006 6.2749996185 62.346820831 0.0342842788
 12155.250000 6.3991498947 2.4188749790 0.0080249999 2.5487599373 0.1680662483 6.2633996010 61.633316040 0.0376372598
 12155.500000 6.3991498947 2.4203898907 0.0086899996 2.5426900387 0.1663742959 6.2517995834 60.919811249 0.0409902409
 12155.750000 6.6439352036 2.4982349873 0.0088499999 2.5422449112 0.1689116508 6.2437944412 60.206310272 0.0204951204
