# LAS format log file from PETREL
# Project units are specified as depth units
#==================================================================
~Version information
VERS.   2.0:
WRAP.   NO:
#==================================================================
~Well
STRT .ft      8654.0000000 :
STOP .ft      12882.500000 :
STEP .ft     0.25000000 :
NULL .        -999.250000 :
COMP.           : COMPANY
WELL.  GS324-4A(EDFU-A3A)   : WELL
FLD.            : FIELD
LOC.            : LOCATION
SRVC.           : SERVICE COMPANY
DATE.  2024-07-08 09:12:30   : Log Export Date {yyyy-MM-dd HH:mm:ss}
PROV.           : PROVINCE
UWI.   EGYPT2110901   : UNIQUE WELL ID
API.            : API NUMBER
#==================================================================
~Curve
DEPT .ft                   : DEPTH
RD .ohm.m                 : RD
PEF .b/e                  : PEF
DRHO .g/cm3               : DRHO
RHOB .g/cm3               : RHOB
NPHI .ft3/ft3             : NPHI
CALI .in                  : CALI
GR .gAPI                  : GR
PHI_FINAL .ft3/ft3        : PHI_FINAL
~Parameter
#==================================================================
~Ascii
# ...
 11986.000000 2.1368501186 2.6380701065 0.0056200000 2.4632899761 0.1444672942 6.0243997574 16.081399918 0.1351751983
 11986.250000 2.1268601418 2.6132102013 0.0077550001 2.4626100063 0.1448204964 6.0144348145 16.328748703 0.1357780993
 11986.500000 2.1168699265 2.5883500576 0.0098900003 2.4619300365 0.1451736987 6.0044698715 16.576099396 0.1363810003
 11986.750000 2.1428298950 2.5256550312 0.0137150008 2.4585950375 0.1452524960 6.0182499886 16.576099396 0.1364593506
 11987.000000 2.1687901020 2.4629600048 0.0175400004 2.4552600384 0.1453312933 6.0320301056 16.576099396 0.1365377009
 11987.250000 2.2183501720 2.3927049637 0.0234350003 2.4598150253 0.1458111554 6.0688199997 16.576099396 0.1320993453
 11987.500000 2.2679100037 2.3224499226 0.0293300003 2.4643700123 0.1462910026 6.1056098938 16.576099396 0.1276610047
 11987.750000 2.2679100037 2.3990600109 0.0173049998 2.4580950737 0.1459146440 6.0850000381 17.086013794 0.1269015968
 11988.000000 2.2679100037 2.4756700993 0.0052800002 2.4518201351 0.1455383003 6.0643901825 17.595930099 0.1261422038
 11988.250000 2.3936598301 2.5280749798 0.0047800001 2.4560949802 0.1446000040 6.0737400055 17.340970993 0.1213106513
 11988.500000 2.5194098949 2.5804800987 0.0042800000 2.4603700638 0.1436616927 6.0830898285 17.086009979 0.1164790988
 11988.750000 2.6833848953 2.5904600620 0.0053800000 2.4673798084 0.1416036934 6.0772600174 16.831054688 0.1142186522
 11989.000000 2.8473598957 2.6004400253 0.0064800000 2.4743897915 0.1395456940 6.0714302063 16.576099396 0.1119581982
 11989.250000 3.3523550034 2.6709499359 0.0133699998 2.4744598866 0.1389342993 6.0750751495 16.081399918 0.1148052961
 11989.500000 3.8573501110 2.7414600849 0.0202600006 2.4745299816 0.1383229047 6.0787200928 15.586700439 0.1176524013
 11989.750000 4.1473398209 2.7618498802 0.0211050007 2.4805350304 0.1367331594 6.0736203194 15.586700439 0.1163787544
 11990.000000 4.4373297691 2.7822399139 0.0219500009 2.4865400791 0.1351433992 6.0685200691 15.586700439 0.1151051000
 11990.250000 4.9782199860 2.8656749725 0.0235350002 2.4918899536 0.1335396469 6.1499648094 18.402660370 0.0575525500
 11990.500000 5.5191102028 2.9491100311 0.0251200013 2.4972400665 0.1319358945 6.2314100266 21.218620300 0.0000000000
 11990.750000 8.0959596634 2.9859349728 0.0311850011 2.5164699554 0.1286417991 6.3262596130 24.034576416 0.0000000000
 11991.000000 10.672809601 3.0227599144 0.0372500010 2.5356998444 0.1253477037 6.4211096764 26.850530624 0.0000000000
 11991.250000 10.672809601 3.1807799339 0.0250950009 2.5527999401 0.1194055974 6.4168248177 30.960306168 0.0000000000
 11991.500000 10.672809601 3.3387999535 0.0129399998 2.5698997974 0.1134634987 6.4125399590 35.070079803 0.0000000000
 11991.750000 17.611000061 3.4404699802 0.0053050001 2.5966699123 0.1074211448 6.3661746979 35.439201355 0.0000000000
 11992.000000 24.549190521 3.5421400070 -0.002330000 2.6234400272 0.1013787985 6.3198099136 35.808319092 0.0000000000
 11992.250000 30.327470779 3.4894950390 0.0003800001 2.6283950806 0.0942955017 6.2625551224 36.177436829 0.0000000000
 11992.500000 36.105751038 3.4368500710 0.0030900000 2.6333501339 0.0872121975 6.2052998543 36.546558380 0.0000000000
 11992.750000 38.295204163 3.3240201473 -0.003295000 2.6273050308 0.0807963535 6.1267251968 36.546558380 0.0000000000
 11993.000000 40.484661102 3.2111899853 -0.009680000 2.6212599277 0.0743805021 6.0481500626 36.546558380 0.0000000000
 11993.250000 40.484661102 3.3795750141 -0.004885000 2.6291799545 0.0683937520 6.0259399414 36.546558380 0.0200063158
 11993.500000 40.484661102 3.5479600430 -0.000090000 2.6370999813 0.0624070019 6.0037298203 36.546558380 0.0400126316
 11993.750000 42.652145386 3.5084550381 -0.001620000 2.6311800480 0.0584785528 5.9860448837 31.808904648 0.0450979657
 11994.000000 44.819629669 3.4689500332 -0.003150000 2.6252601147 0.0545501001 5.9683599472 27.071250916 0.0501832999
 11994.250000 47.480800629 3.4494950771 0.0031850003 2.6196701527 0.0515502021 5.9944849014 22.333591461 0.0455163606
 11994.500000 50.141971588 3.4300398827 0.0095200008 2.6140801907 0.0485503003 6.0206098557 17.595930099 0.0408494212
 11994.750000 50.141971588 3.2599999905 0.0057250005 2.6111202240 0.0476993024 6.0139646530 15.198560715 0.0446624681
 11995.000000 50.141971588 3.0899600983 0.0019299999 2.6081600189 0.0468483008 6.0073199272 12.801190376 0.0484755188
 11995.250000 50.273437500 3.3085200787 0.0013649999 2.6003348827 0.0461869501 6.0106401443 11.948789597 0.0505438037
 11995.500000 50.404899597 3.5270800591 0.0008000000 2.5925099850 0.0455255993 6.0139603615 11.096389771 0.0526120886
 11995.750000 49.569564819 3.5991501808 0.0021899999 2.5954399109 0.0461092517 6.0186347961 11.096389771 0.0524202399
 11996.000000 48.734230042 3.6712200642 0.0035800000 2.5983700752 0.0466929004 6.0233097076 11.096389771 0.0522283912
 11996.250000 45.409969330 3.5136702061 0.0036549999 2.5987350941 0.0465655029 6.0393247604 11.096389771 0.0515194125
 11996.500000 42.085708618 3.3561201096 0.0037300000 2.5991001129 0.0464381017 6.0553402901 11.096389771 0.0508104302
 11996.750000 42.085708618 3.4274098873 0.0040150001 2.6007900238 0.0470769517 6.0689501762 10.335325241 0.0490981154
 11997.000000 42.085708618 3.4986999035 0.0043000001 2.6024799347 0.0477158017 6.0825600624 9.5742597580 0.0473858006
 11997.250000 39.180904388 3.4045801163 -0.000050000 2.5977449417 0.0487915985 6.0821599960 8.8131904602 0.0476482175
 11997.500000 36.276100159 3.3104600906 -0.004400000 2.5930099487 0.0498673990 6.0817599297 8.0521202087 0.0479106382
 11997.750000 38.318840027 3.3873798847 0.0030800002 2.5934250355 0.0521057472 6.1018199921 8.8131895065 0.0416435637
 11998.000000 40.361579895 3.4642999172 0.0105600003 2.5938401222 0.0543440990 6.1218800545 9.5742597580 0.0353764892
 11998.250000 40.704849243 3.2831249237 0.0095000006 2.5869450569 0.0562623478 6.1089701653 10.335324287 0.0382208340
 11998.500000 41.048118591 3.1019499302 0.0084400000 2.5800499916 0.0581806004 6.0960597992 11.096389771 0.0410651788
 11998.750000 41.048118591 2.9855949879 0.0041149999 2.5813350677 0.0617691018 6.0812849998 11.096389771 0.0470370091
 11999.000000 41.048118591 2.8692400455 -0.000210000 2.5826201439 0.0653576031 6.0665102005 11.096389771 0.0530088395
 11999.250000 37.508609772 2.8544600010 -0.006835000 2.5832002163 0.0687283054 6.0470099449 11.096389771 0.0610168055
 11999.500000 33.969100952 2.8396799564 -0.013460000 2.5837800503 0.0720990002 6.0275096893 11.096389771 0.0690247715
 11999.750000 32.242492676 2.8147101402 -0.015895000 2.5812749863 0.0786710531 6.0352201462 12.397819519 0.0727279335
 12000.000000 30.515880585 2.7897400856 -0.018330000 2.5787699223 0.0852430984 6.0429301262 13.699250221 0.0764311031
 12000.250000 30.515880585 3.0404548645 -0.011565001 2.5805249214 0.0909371451 6.0835499763 13.931374550 0.0382155515
 12000.500000 30.515880585 3.2911698818 -0.004800000 2.5822799206 0.0966311991 6.1241703033 14.163499832 0.0000000000
 12000.750000 25.004741669 3.4192998409 0.0021549999 2.5892949104 0.1040137485 6.1637148857 14.395629883 0.0000000000
 12001.000000 19.493600845 3.5474300385 0.0091100000 2.5963101387 0.1113962978 6.2032599449 14.627759933 0.0000000000
 12001.250000 13.861345291 3.9851551056 0.0008350001 2.6096150875 0.1169044971 6.2004899979 15.107230186 0.0000000000
 12001.500000 8.2290897369 4.4228801727 -0.007440000 2.6229200363 0.1224126965 6.1977195740 15.586700439 0.0000000000
 12001.750000 7.8548350334 4.3266954422 -0.011294999 2.6382400990 0.1267769486 6.2029848099 15.586700439 0.0000000000
 12002.000000 7.4805798531 4.2305102348 -0.015149999 2.6535601616 0.1311412007 6.2082500458 15.586700439 0.0000000000
 12002.250000 6.4861898422 3.9704000950 -0.011940000 2.6676249504 0.1306694597 6.2012553215 15.586700439 0.0000000000
 12002.500000 5.4917998314 3.7102899551 -0.008730000 2.6816899776 0.1301977038 6.1942601204 15.586700439 0.0000000000
 12002.750000 5.1417198181 3.7040848732 0.0005600001 2.6770050526 0.1290790439 6.2166204453 17.116451263 0.0000000000
